stop_id,stop_name,stop_lat,stop_lon,stop_code
"0001","Bologna                            352","43.9106727107917","11.1194835370417","0001"
"0002","Bologna                            Sn","43.9182407152341","11.1261264212841","0002"
"0003","Bologna                            Sn","43.9215931335467","11.126144216868","0003"
"0004","Bologna                            Sn","43.9261750398158","11.1265974813444","0004"
"0005","B.Zio                              20","43.9322692494231","11.126242017586","0005"
"0006","B.Zio                              62","43.9361919416353","11.1257803252459","0006"
"0007","B.Zio                              133","43.9381982798667","11.127465716061","0007"
"0008","B.Zio                              Sn","43.9406405538507","11.1279952960983","0008"
"0009","B.Zio                              110","43.9464963005884","11.1250598101914","0009"
"0010","B.Zio                              142","43.9488171690246","11.1257565234851","0010"
"0011","Sofignano                          7","43.9551281074658","11.1286137788794","0011"
"0012","Borgonuovo                         47","43.9560896453489","11.1319693247585","0012"
"0013","Borgonuovo                         9/A","43.9614559070632","11.1298872991792","0013"
"0014","Mazzini                            24","43.963039877822","11.1295527719919","0014"
"0015","Braga                              Sn","43.9637695056942","11.1249990093445","0015"
"0016","Braga                              122","43.96702964613","11.1253249524733","0016"
"0017","Braga                              300","43.9702549869194","11.1239981720802","0017"
"0018","Rosselli                           28","43.9692930812084","11.1260207704905","0018"
"0019","Rosselli                           56","43.9662854189856","11.1278838508704","0019"
"0020","Rosselli                           70","43.9652103570176","11.128911976736","0020"
"0021","Borgonuovo                         34","43.9613848808401","11.1297998783462","0021"
"0022","Borgonuovo                         Sn","43.9598581697938","11.1305543572252","0022"
"0023","Sofignano                          9","43.9552331206519","11.1285684246037","0023"
"0024","Bisenzio                           Sn","43.9544593127663","11.126580625194","0024"
"0025","Bisenzio                           142","43.9485964893664","11.1254038402175","0025"
"0026","Bisenzio                           187","43.9455361091054","11.1246237198726","0026"
"0028","Bisenzio                           133","43.9380511298017","11.127221120489","0028"
"0029","Bisenzio                           83","43.9357980379376","11.1256840569898","0029"
"0030","Bisenzio                           20","43.93237279781","11.1262124447825","0030"
"0031","Bisenzio                           Sn","43.925925547768","11.1269074867751","0031"
"0032","Bologna                            8","43.9210089618921","11.1258704244143","0032"
"0033","Bologna                            Sn","43.9178715568177","11.1256486893395","0033"
"0034","Bisenzio                           291","43.9743803428002","11.1227743897112","0034"
"0035","Bisenzio                           222","43.9771416958244","11.124137026092","0035"
"0036","Bisenzio                           105","43.980072113168","11.1258866089697","0036"
"0037","Bisenzio                           26","43.9857236312117","11.1304139121961","0037"
"0038","Bisenzio                           155","43.9887292158088","11.135247749027","0038"
"0039","Bisenzio                           Sn","43.9918748327466","11.1374726225206","0039"
"0040","Bisenzio                           120","43.9959050855894","11.1391194293924","0040"
"0041","Bisenzio                           185","43.9996763927001","11.1409624506443","0041"
"0042","Bisenzio                           178","44.0021774393274","11.1402203649642","0042"
"0043","Bisenzio                           257","44.0044607331712","11.1396587394086","0043"
"0044","Bisenzio                           311","44.0094485268129","11.1429615933789","0044"
"0045","Bisenzio                           324","44.0171332050679","11.1423809820405","0045"
"0046","Bisenzio                           327","44.0208957314966","11.1398884057652","0046"
"0047","Bisenzio                           52","44.0237735668472","11.1412591781679","0047"
"0048","Bisenzio                           53","44.0260690878536","11.1445423080838","0048"
"0049","Bisenzio                           84","44.0282952476879","11.1495067729972","0049"
"0050","Bisenzio                           2","44.0338983404391","11.1540193254316","0050"
"0051","Bisenzio                           16","44.0379903639396","11.1538143086548","0051"
"0052","Bisenzio                           180","44.0426436344347","11.1499733140694","0052"
"0053","Bisenzio                           234","44.0441968420243","11.1498402904322","0053"
"0054","Bisenzio                           359","44.0459692772716","11.1512611014198","0054"
"0055","Bisenzio                           377","44.0476504206872","11.1534402459487","0055"
"0056","Bisenzio                           21","44.0489979169483","11.156432143778","0056"
"0057","Roma                               46","44.0512252626401","11.1564338535596","0057"
"0058","Roma                               121","44.0527794134816","11.1558362609541","0058"
"0059","Bolognese                          181","44.0563013504308","11.1522993359219","0059"
"0060","Bolognese                          Sn","44.0586791749265","11.1511473934464","0060"
"0061","Bolognese                          187","44.0650593693789","11.1465759962683","0061"
"0062","Bolognese                          9","44.0604969685965","11.1542343976842","0062"
"0063","Bolognese                          22","44.0613204643815","11.1550037772922","0063"
"0064","Bolognese                          52","44.0656237421802","11.1521793707039","0064"
"0065","Appennino                          Sn","44.0707242003152","11.1498127429076","0065"
"0066","Appennino                          10","44.0806852915966","11.1605678775919","0066"
"0067","Appennino                          30","44.0905677369823","11.1601148267429","0067"
"0068","Appennino                          430","44.0927559249125","11.1625890918366","0068"
"0069","Appennino                          194","44.0950425848403","11.1632753480128","0069"
"0070","Appennino                          147","44.0980832729617","11.16402203","0070"
"0071","Appennino                          210","44.10340171668","11.1616516872942","0071"
"0072","Appennino                          220","44.1059794013413","11.162844326717","0072"
"0073","Appennino                          163","44.1113821118483","11.1616142857787","0073"
"0074","Toscana                            124","44.1121603912639","11.1578744851839","0074"
"0075","Toscana                            112","44.1129119041174","11.1603253560451","0075"
"0076","Toscana                            Sn","44.1151264627177","11.1656164310332","0076"
"0077","Toscana                            141","44.1214875089809","11.1678259460634","0077"
"0078","Toscana                            100","44.1295231017891","11.1738348378348","0078"
"0079","Toscana                            90","44.1367838930892","11.1706102258538","0079"
"0080","Toscana                            76","44.1417740988423","11.1682259180567","0080"
"0081","Toscana                            3","44.1427271538093","11.1592173857263","0081"
"0082","Pepoli                             12","44.1412823626733","11.156872802095","0082"
"0083","Toscana                            Sn","44.1412214507611","11.1646595653809","0083"
"0084","Toscana                            24","44.1431022024602","11.160408304418","0084"
"0085","Toscana                            60","44.1411066606562","11.1647546363619","0085"
"0086","Toscana                            76","44.1418966671012","11.1686743633359","0086"
"0087","Toscana                            90","44.1359090744725","11.1699988660005","0087"
"0088","Toscana                            100","44.1294119609498","11.173629014727","0088"
"0089","Toscana                            137","44.1215520284525","11.1679794074596","0089"
"0090","Toscana                            Sn","44.1154064820135","11.1655534315067","0090"
"0091","Toscana                            110","44.1130484881819","11.1604439246295","0091"
"0092","Appennino                          124","44.1119370005067","11.1583521974094","0092"
"0093","Appennino                          163","44.1108177157741","11.1618280007542","0093"
"0094","Appennino                          220","44.1058144175383","11.1627137361252","0094"
"0095","Appennino                          210","44.1032800065052","11.1615321790143","0095"
"0096","Appennino                          147","44.0979251357487","11.1639577923751","0096"
"0097","Appennino                          194","44.0948576808176","11.1629891493898","0097"
"0098","Appennino                          83","44.0927094684954","11.1623704131758","0098"
"0099","Appennino                          30","44.0910761931055","11.1604500034423","0099"
"0100","Appennino                          6","44.0805498102963","11.1606146509853","0100"
"0101","Appennino                          Sn","44.0713318820987","11.1496086024859","0101"
"0102","Bolognese                          53","44.065021253252","11.1522557979087","0102"
"0103","Bolognese                          34","44.0627412701756","11.1534323331799","0103"
"0104","Bolognese                          31","44.0611340495993","11.1552449702169","0104"
"0105","Bolognese                          7","44.0603967577196","11.1546021952133","0105"
"0106","Bolognese                          187","44.0650274430467","11.1464496063582","0106"
"0107","Bolognese                          Sn","44.0586977627982","11.1510113584098","0107"
"0108","Bolognese                          181","44.0558265880401","11.1522959892053","0108"
"0109","Roma                               121","44.0524867684063","11.155924384323","0109"
"0110","Roma                               46","44.051076205497","11.1563461785404","0110"
"0111","Roma                               21","44.0489410580259","11.1563060016315","0111"
"0112","Bisenzio                           377","44.0477934976848","11.1534727685852","0112"
"0113","Bisenzio                           359","44.0459109037488","11.1511481469394","0113"
"0114","Bisenzio                           209","44.0436396777047","11.1494793839651","0114"
"0115","Bisenzio                           101","44.0419221888869","11.1505770155563","0115"
"0116","Bisenzio                           37","44.0382073382868","11.1534802070623","0116"
"0117","Bisenzio                           2","44.0342153429465","11.1539142534482","0117"
"0118","Bisenzio                           84","44.0281506973374","11.147906313793","0118"
"0119","Bisenzio                           53","44.0262180380211","11.1445978419312","0119"
"0120","Bisenzio                           13","44.0230877394238","11.1406233436084","0120"
"0121","Bisenzio                           327","44.0204956818875","11.1398471855152","0121"
"0122","Bisenzio                           318","44.0168527650643","11.1425244596935","0122"
"0123","Bisenzio                           309","44.0090834339756","11.1425735880781","0123"
"0124","Bisenzio                           217","44.0045471375593","11.1395111677692","0124"
"0125","Bisenzio                           178","44.0022823954198","11.1401302186856","0125"
"0126","Bisenzio                           36","43.9998413554089","11.1408266986277","0126"
"0127","Bisenzio                           74","43.9957799150918","11.1389525510818","0127"
"0128","Bisenzio                           Sn","43.9921753610593","11.1373956191312","0128"
"0129","Bisenzio                           155","43.9886274061822","11.1343701954756","0129"
"0130","Bisenzio                           26","43.9856380095908","11.1303463816271","0130"
"0131","Bisenzio                           105","43.9798977735191","11.125351607613","0131"
"0132","Bisenzio                           222","43.977004325299","11.1238213088533","0132"
"0133","Bisenzio                           291","43.9743777517948","11.122642520322","0133"
"0134","Bisenzio                           5","43.9709621901028","11.1236981391329","0134"
"0135","Bisenzio                           261","43.9685692824983","11.1229679803372","0135"
"0136","Bisenzio                           205","43.9631571177265","11.1246643060131","0136"
"0137","Bisenzio                           Sn","43.9596172523596","11.1250492499969","0137"
"0138","Alighieri                          11","43.9684695205436","11.1245032091803","0138"
"0139","Schignano                          12","43.9664580105059","11.1231136390868","0139"
"0140","Schignano                          Sn","43.9648066947299","11.121351321835","0140"
"0141","Schignano                          Sn","43.9616362155919","11.1184638773524","0141"
"0142","Schignano                          Sn","43.962413708252","11.1127396132693","0142"
"0143","Schignano                          Sn","43.9646279754913","11.1109134645916","0143"
"0144","Schignano                          Sn","43.9672198379123","11.1063194771849","0144"
"0145","Bertini                            15","43.9652465424975","11.1061805382394","0145"
"0146","Cantagallo                         Sn","43.9652831647795","11.1037586013917","0146"
"0147","Cantagallo                         45","43.9659259505248","11.103858955542","0147"
"0148","Cantagallo                         28","43.970140566626","11.1032573225738","0148"
"0149","Cantagallo                         55","43.9779607801446","11.1021285921253","0149"
"0150","Cantagallo                         16","43.9788481709292","11.1018040761704","0150"
"0151","Cantagallo                         194","43.9799652843483","11.0949340906617","0151"
"0152","Cantagallo                         3n","43.9804229336299","11.0942803894181","0152"
"0153","Cantagallo                         33","43.9835643766126","11.0945881316555","0153"
"0154","Cantagallo                         Sn","43.9850124778887","11.0943612548447","0154"
"0155","Migliana                           98","43.9868984877853","11.0964414543364","0155"
"0156","Migliana                           Sn","43.9939421749441","11.1026662059463","0156"
"0157","Di Migliana                        13","43.9878474377641","11.0989557573599","0157"
"0158","Cantagallo                         13","43.9893229127634","11.0983272761027","0158"
"0159","Cantagallo                         226","43.9923328359024","11.1026521348363","0159"
"0160","Cantagallo                         259","43.9956527276028","11.1039064407368","0160"
"0161","Cantagallo                         226","43.9923917920842","11.1028632289494","0161"
"0162","Cantagallo                         185","43.9892858582077","11.0980556158771","0162"
"0163","Di Migliana                        13","43.9876705696253","11.0987818022325","0163"
"0164","Di Migliana                        Sn","43.9940020110858","11.1025214088636","0164"
"0165","Di Migliana                        98","43.9869481155073","11.096538470457","0165"
"0166","Cantagallo                         Sn","43.9850383255873","11.0942429572624","0166"
"0167","Cantagallo                         33","43.9836595801472","11.0945859941206","0167"
"0168","Cantagallo                         3","43.9806233623464","11.0942107571716","0168"
"0169","Cantagallo                         194","43.9800134568781","11.094865090129","0169"
"0170","Cantagallo                         16","43.9787168883524","11.1018097915354","0170"
"0171","Cantagallo                         55","43.9780451662354","11.1020244716824","0171"
"0172","Cantagallo                         28","43.9702623886071","11.1032324524977","0172"
"0173","Cantagallo                         45","43.9658301415494","11.1037375262228","0173"
"0174","Cintelli                           14","43.9650868323774","11.1037570295259","0174"
"0175","Bertini                            15","43.9651516777135","11.1062375163451","0175"
"0176","Bertini                            Sn","43.9671427610952","11.1063883047142","0176"
"0177","Schignano                          Sn","43.9644982457696","11.110874091357","0177"
"0178","Schignano                          Sn","43.9625542134238","11.1133498761705","0178"
"0179","Schignano                          39","43.9615420761992","11.1184425820244","0179"
"0180","Schignano                          22","43.9651408086895","11.1230761775376","0180"
"0181","Schignano                          21","43.966646295722","11.1230637552054","0181"
"0182","S.Stefano                          Sn","44.0253927170348","11.1022806160934","0182"
"0183","Sofignano                          13","43.9555882968199","11.1332399565153","0183"
"0184","Sofignano                          36","43.9578379370559","11.1368575250805","0184"
"0185","Sofignano                          56","43.9604747300333","11.1411071242464","0185"
"0186","Ang Via Savignano                  Sn","43.9610972729916","11.145369470417","0186"
"0187","Delle Fornaci                      Sn","43.9662791690406","11.1458307844815","0187"
"0188","Della Selva                        Sn","43.9679991097431","11.1451907852136","0188"
"0189","Della Selva                        Sn","43.9691008081745","11.141810291098","0189"
"0190","Della Selva                        Sn","43.9682908513833","11.1444457377447","0190"
"0191","Della Selva                        Sn","43.9679437743564","11.1451026546123","0191"
"0192","Delle Fornaci                      Sn","43.9661273934836","11.1458345426591","0192"
"0193","Sofignano                          91","43.9611791722575","11.145409437859","0193"
"0194","Sofignano                          56","43.9605215035502","11.1410181901989","0194"
"0195","Sofignano                          36","43.9579941187371","11.1369310516614","0195"
"0196","Sofignano                          13","43.9564917185246","11.1359504116901","0196"
"0197","Bolognese                          149","44.0287844559534","11.1516213458221","0197"
"0198","S.Ippolito                         19","44.0385003361188","11.1521267019903","0198"
"0199","S.Ippolito                         9","44.0393533919244","11.1453697101674","0199"
"0200","S.Ippolito                         8","44.0379369812741","11.1476994685115","0200"
"0201","S.Ippolito                         42","44.0326546808927","11.1436337843977","0201"
"0202","S.Ippolito                         68","44.0338805210921","11.1398812101547","0202"
"0203","S.Ippolito                         42","44.0325989125852","11.1435303166485","0203"
"0204","S.Ippolito                         8","44.0378599914528","11.1478102579371","0204"
"0205","S.Ippolito                         9","44.0392803118187","11.1455696336954","0205"
"0206","S.Ippolito                         19","44.0384248794987","11.152022128544","0206"
"0207","Bisenzio                           247","44.0448644218122","11.1505291040591","0207"
"0208","Provinciale 104                    Sn","44.0396975888814","11.1325874589866","0208"
"0209","Provinciale 104                    Sn","44.028323584628","11.1193658579215","0209"
"0210","Provinciale 104                    Sn","44.0258937571865","11.1184367381096","0210"
"0211","Provinciale 104                    Sn","44.0292129187236","11.1113747028494","0211"
"0212","Cantagallo                         Sn","44.0282049655108","11.1072287787289","0212"
"0213","Cantagallo                         Sn","44.0221239303536","11.0965892847063","0213"
"0214","Cantagallo                         Sn","44.0218910022182","11.0799074811336","0214"
"0215","Cantagallo                         59","44.0221366473214","11.0967548051905","0215"
"0216","Provinciale 104                    Sn","44.0289581415709","11.1109210444131","0216"
"0217","Provinciale 104                    Sn","44.0260837999992","11.1185782708559","0217"
"0218","Provinciale 104                    Sn","44.0289472641107","11.1197281310934","0218"
"0219","Provinciale 104                    Sn","44.0397257789209","11.1328665426394","0219"
"0220","Cavarzano                          Sn","44.055404574792","11.1282875284197","0220"
"0221","Cavarzano                          Sn","44.0562997646657","11.1249220088666","0221"
"0222","Cavarzano                          Sn","44.0568694698433","11.1273552511775","0222"
"0223","Cavarzano                          Sn","44.0574862173252","11.1272713486479","0223"
"0224","Gagnaia                            40","44.0562201567596","11.1168948996055","0224"
"0225","Cavarzano                          Sn","44.0568949517271","11.1275967383759","0225"
"0226","Cavarzano                          Sn","44.0563420282968","11.1251811966418","0226"
"0227","Cavarzano                          Sn","44.0553243194347","11.1281300998721","0227"
"0228","Luciana                            Sn","44.059004400691","11.1243895415369","0228"
"0229","Luciana                            Sn","44.0670986303468","11.1250787097337","0229"
"0230","Luciana                            40","44.0678914251363","11.1388726942642","0230"
"0231","Luciana                            Sn","44.0689397664148","11.1444215722943","0231"
"0232","Luciana                            Sn","44.0711948741439","11.1494592867867","0232"
"0233","Luciana                            Sn","44.0710300376432","11.1497696234547","0233"
"0234","Luciana                            Sn","44.067948073921","11.1387611058811","0234"
"0235","Luciana                            Sn","44.066889593199","11.1251020694601","0235"
"0236","Luciana                            Sn","44.0590418490979","11.1242494276645","0236"
"0237","Bisenzio                           Sn","43.9558258309449","11.1263049630089","0237"
"0238","Bisenzio                           Sn","43.9597452822504","11.1251023002721","0238"
"0239","P.Zza Repubblica                   12","43.9361110025857","11.1265057978461","0239"
"0240","Rosselli                           102","43.9635239833999","11.1296686695519","0240"
"0241","Mazzini                            36","43.96296890887","11.1279889086515","0241"
"0242","Bisenzio                           237","43.9668080779426","11.1241778272365","0242"
"0243","Borgonuovo                         Sn","43.9576384152644","11.1325707546683","0243"
"0244","Lombarda                           Sn","43.8104145183751","11.0558227529811","0244"
"0245","Fattori                            14","43.9380976115984","11.1283458764494","0245"
"0246","Fattori                            36","43.9398245445548","11.1288622909999","0246"
"0247","Cantagallo                         Sn","44.028326912737","11.1075532968169","0247"
"0248","Rizzella                           Sn","44.0370947183017","11.1156867952477","0248"
"0249","Posatoio                           Sn","44.0410476788187","11.1039985820594","0249"
"0250","S.Ippolito                         68","44.0338853165089","11.1401922487043","0250"
"0251","S.Ippolito                         Sn","44.0351960615875","11.1386220572638","0251"
"0252","Il Poggio                          Sn","44.0352901035369","11.1366954307949","0252"
"0253","S.Ippolito                         Sn","44.0351216788814","11.1385267806377","0253"
"0254","Appennino                          Sn","44.0825570298787","11.1593305938654","0254"
"0255","Fontemorana2                       Sn","44.0851870597728","11.1605991508256","0255"
"0256","Bisenzio                           208","43.9673526526376","11.1240730851786","0256"
"0257","Bronia                             53","43.9615079015168","11.1390577080426","0257"
"0258","Bronia                             39","43.9614530470499","11.1359367796875","0258"
"0259","Bronia                             23","43.9602999412009","11.1329721134692","0259"
"0262","Mammoli                            35","43.8170824453708","11.1260263383676","0262"
"0264","Mammoli                            5","43.8164984003366","11.1280083739645","0264"
"0265","La Valle                           Sn","44.0339623499451","11.1582112878117","0265"
"0268","Via Lama Case Pep Ater Edilcoop    Sn","44.0519234084373","11.1553346971783","0268"
"0269","Poggiole Aione                     Sn","44.0478632710507","11.1454460550317","0269"
"0270","P.Zza Luciana                      Sn","44.068920636122","11.1442896436394","0270"
"0272","P.Zza Della Chiesa                 Sn","44.0575812250362","11.1274585241653","0272"
"0273","S.Ippolito                         Sn","44.0343176922518","11.1464456464882","0273"
"0274","S.Ippolito                         Sn","44.0342309470563","11.1464959268414","0274"
"0275","Magini                             Sn","44.0465260158727","11.1550869627101","0275"
"0280","Migliana Loc. Butia                Sn","43.9841655733029","11.123115596208","0280"
"0281","Materna S.Ippolito                 Sn","44.0341071839961","11.1407719281104","0281"
"0301","Migliana Tracconi                  Sn","43.985508019006","11.1167871038447","0301"
"0303","Piazzetta Loc. Celle               Sn","44.0518934246001","11.1594526135803","0303"
"0304","Santo Stefano                      Sn","44.0254340275361","11.1020270305027","0304"
"0306","Cantagallo                         Sn","44.0270099395683","11.1055073673991","0306"
"0309","Via Buozzi                         Sn","43.8202069455176","11.1416082688745","0309"
"0310","S.Ippolito                         Sn","44.040892799027","11.1472978139242","0310"
"0311","S.Ippolito                         Sn","44.0408301855051","11.1471324245084","0311"
"0315","Bolognese                          149","44.028699121103","11.1516969965782","0315"
"0317","Genova                             Sn","43.8784293645536","11.0883872048751","0317"
"0318","Lucca                              Sn","43.8759742556769","11.08569511995","0318"
"0327","Repubblica                         Sn","43.8689895157061","11.114300602204","0327"
"0334","Vannucchi                          Sn","43.8604983412295","11.1179150424834","0334"
"0335","Vannucchi                          60","43.8588278700421","11.1167577960067","0335"
"0341","Piazza La Villa                    248","44.0318521920231","11.1172791048926","0341"
"0342","Piazza La Villa                    248","44.0316532657594","11.1171456064595","0342"
"0343","Cantagallo                         Sn","43.991418369495","11.1006220352885","0343"
"0344","Schignano                          Sn","43.9660086352436","11.1087684796426","0344"
"0345","Schignano                          Sn","43.9660713440093","11.1087172227059","0345"
"0346","Cantagallo                         Sn","43.9913655187132","11.1006466081397","0346"
"0347","Bisenzio                           282","43.9707733372328","11.123686544871","0347"
"0348","Bolognese                          34","44.062746910185","11.153715711786","0348"
"0352","Lorenzo Ciulli                     22","43.8898962779362","11.0576670268901","0352"
"0353","Via Lama Case Pep Ater Edilcoop    Sn","44.0519141158032","11.1552927904565","0353"
"0354","Bertini                            110","43.9617066210281","11.1013029826168","0354"
"0355","Xx Settembre                       Sn","43.7849759413744","11.0939528447427","0355"
"0362","Via Alighieri                      11","43.9682438710091","11.1242045849759","0362"
"0365","Meucci                             Sn","43.8430421515662","11.0443317181447","0365"
"0376","Jorio Borchi                       Sn","43.8402244698556","11.0444653417228","0376"
"0377","Falcon.Borsell.                    Sn","43.8650956931237","11.1103536020675","0377"
"0386","Di Rimaggio                        Sn","43.7679862930683","11.1023155856775","0386"
"0392","Localita S. Stefano                Sn","44.0260031604326","11.098945639701","0392"
"0393","Localita Castello Piazza           Sn","44.0293425228557","11.0930002963966","0393"
"0395","Scuola Materna S.Quirico           Sn","44.0548211459333","11.156656406885","0395"
"0397","Scuola Materna Mercatale           Sn","44.0411273765969","11.1511609477643","0397"
"0402","Gramsci                            154","43.951289845957","11.0358689228386","0402"
"0405","Gramsci                            211","43.9501357201796","11.0349135513852","0405"
"0406","Nuova Montalese                    17/A","43.9131329925873","11.0608677618947","0406"
"0408","Deledda                            Sn","43.9301193226742","11.0314304214127","0408"
"0409","Della Viaccia                      Sn","43.9015987695213","11.0346069882062","0409"
"0411","Gramsci                            177","43.9475943251134","11.0338941942674","0411"
"0412","Gramsci                            167","43.9442504073009","11.0308377662045","0412"
"0413","Gramsci                            153","43.9421806954428","11.0293247447541","0413"
"0414","Gramsci                            127","43.9386039402589","11.0272614590989","0414"
"0416","Gramsci                            7","43.9340553664888","11.0216635514961","0416"
"0417","Gramsci                            65","43.9358025235547","11.0238768100601","0417"
"0488","G.Rossa                            Sn","43.9093630459714","11.0180538427135","0488"
"0489","I Maggio                           Sn","43.9017554424381","11.0329930778961","0489"
"0490","Garibaldi                          Sn","43.9274334369579","11.0195703239891","0490"
"0491","Garibaldi                          3","43.9244818104137","11.0177345876507","0491"
"0492","Garibaldi                          21","43.921477291219","11.0156801428047","0492"
"0493","Garibaldi                          33","43.9188485205376","11.0130032325118","0493"
"0494","Garibaldi                          Sn","43.9161989008557","11.01111326177","0494"
"0495","Garibaldi                          Sn","43.913553593369","11.0087356452019","0495"
"0496","Garibaldi                          Sn","43.9159749800456","11.0110369662456","0496"
"0497","Garibaldi                          33","43.9190131527197","11.0132557784022","0497"
"0498","Garibaldi                          3","43.9215078029924","11.0158184390622","0498"
"0499","Garibaldi                          Sn","43.9245380643468","11.0178833541246","0499"
"0500","Della Viaccia                      90","43.9040560918462","11.0373834203919","0500"
"0501","Parugiano Di Sotto                 132","43.907715523699","11.0414169626706","0501"
"0502","Labriola                           101","43.9122089699371","11.0562320804928","0502"
"0504","Lazzeretto                         168","43.8516708906594","11.0899462446132","0504"
"0505","Verdi                              31","43.9292451659049","11.0297654638343","0505"
"0506","Targetti                           12","43.9294256859124","11.0312138336121","0506"
"0507","La Marmora                         Sn","43.9334828565028","11.0306721140577","0507"
"0508","Carducci                           33","43.925883238385","11.0358358541648","0508"
"0509","Rocca                              27","43.927820135503","11.0417018422819","0509"
"0510","Rocca                              Sn","43.931358648416","11.0458971134943","0510"
"0511","Macelli                            Sn","43.7860899243768","11.0977085398662","0511"
"0512","Argine Strada                      Sn","43.785106383368","11.0977475788916","0512"
"0513","Ciulli                             Sn","43.8911425145468","11.0598357372093","0513"
"0514","Ciulli                             Sn","43.8909626782897","11.0596481449781","0514"
"0530","Ospedale                           Sn","43.8904714704313","11.0648536761715","0530"
"0598","Udine                              20","43.9288119072648","11.0318174356436","0598"
"0599","Udine                              52","43.9265144603061","11.0302159471464","0599"
"0600","Oste                               142","43.9065361065362","11.0321602326265","0600"
"0601","Oste                               70","43.9034137195692","11.0295279057231","0601"
"0602","Oste                               92","43.9046961682439","11.030601442365","0602"
"0603","Oste                               Sn","43.9042595775874","11.0301313344242","0603"
"0604","Scarpettini                        405","43.9078756520584","11.0313388327294","0604"
"0605","Scarpettini                        Sn","43.9094076671841","11.0281668648905","0605"
"0606","Scarpettini                        363","43.9105503162877","11.0260697380931","0606"
"0607","Scarpettini                        349","43.9128117186689","11.0277882045972","0607"
"0608","Scarpettini                        269","43.916276433707","11.0303200501328","0608"
"0609","Scarpettini                        Sn","43.9190678902024","11.0323520936755","0609"
"0611","Udine                              57","43.926165774783","11.0300479965926","0611"
"0612","Udine                              15","43.9290211612621","11.0320796938501","0612"
"0613","Rosselli F.Lli                     15","43.9266520460341","11.0369108506523","0613"
"0614","Scarpettini                        16","43.9249343822926","11.0398172988546","0614"
"0615","Scarpettini                        94","43.9227099836093","11.0379276262116","0615"
"0616","Trasimeno                          20","43.9208137817888","11.0361610238293","0616"
"0617","Labriola                           Sn","43.9140328822099","11.0563013836491","0617"
"0618","Como                               1","43.921151308798","11.0374288491284","0618"
"0619","Montalese                          323","43.9233976795414","11.0504283529409","0619"
"0620","Alighieri                          51","43.9255147958915","11.0379023372888","0620"
"0621","Rosselli F.Lli                     34","43.9247548416946","11.0352249690494","0621"
"0622","Scarpettini                        212","43.9185143891891","11.0318142284566","0622"
"0623","Scarpettini                        250","43.9159708599175","11.0299857043893","0623"
"0624","Scarpettini                        312","43.9123906371417","11.0273465995691","0624"
"0625","Scarpettini                        340","43.9107032946398","11.0260741824976","0625"
"0626","Scarpettini                        356","43.9095234925164","11.0277892229117","0626"
"0627","Scarpettini                        397","43.9080639408832","11.0309169717867","0627"
"0628","Oste                               139","43.906750963636","11.0322239570973","0628"
"0629","Toti                               52","43.9050508969118","11.0319079543202","0629"
"0630","Montalese                          29","43.9106040320222","11.0666438145171","0630"
"0631","Montalese                          87","43.9132646744927","11.0644397225522","0631"
"0632","Montalese                          158","43.9159773299727","11.0603737355944","0632"
"0633","Labriola                           74","43.9170238790425","11.0565167703065","0633"
"0634","Labriola                           172","43.9101421973783","11.0547289725852","0634"
"0635","Labriola                           224","43.9072145301827","11.0525530417647","0635"
"0636","Vittorio Veneto                    Sn","43.7924380611616","11.058405817106","0636"
"0637","Vittorio Veneto                    Sn","43.7924696719798","11.0583203954772","0637"
"0638","Siena                              11","43.9059102647683","11.0451161086353","0638"
"0639","Bisenzio                           84","43.9081779675935","11.0448280312028","0639"
"0640","Parugiano Di Sotto                 73","43.9070694596547","11.0405190519969","0640"
"0641","Parugiano Di Sotto                 22","43.905284889153","11.0384825775193","0641"
"0642","Palarciano                         55","43.9049323805806","11.0373082191748","0642"
"0643","Strozzi                            11","43.9080987902938","11.0373224885277","0643"
"0644","Venezia                            15","43.9081321083857","11.0334466785297","0644"
"0645","Piazza Amendola                    10","43.9048203219752","11.0294870505254","0645"
"0646","Palarciano                         6","43.9072252196088","11.0335871468947","0646"
"0647","Palarciano                         50","43.9065370605116","11.0347568236885","0647"
"0648","Parugiano Di Sotto                 22","43.9055541765925","11.0389014650093","0648"
"0649","Bisenzio                           67","43.9080914532241","11.0448376459944","0649"
"0653","Labriola                           197","43.9072087172374","11.0528514662052","0653"
"0654","Labriola                           163","43.9100614479406","11.055088719212","0654"
"0655","Labriola                           73","43.9148181301721","11.0565077812251","0655"
"0656","Montalese                          657","43.9306168044343","11.0297868405613","0656"
"0657","Della Francesca                    13","43.9127783684506","11.062861893309","0657"
"0658","Montalese                          65","43.9129290724898","11.064631618762","0658"
"0659","Montalese                          29","43.9101742261728","11.0667724023004","0659"
"0660","Montalese                          234","43.9191903005282","11.0568047825505","0660"
"0661","Montalese                          Sn","43.9215742224332","11.0545676263869","0661"
"0662","Montalese                          316","43.9235098066591","11.0501605303146","0662"
"0663","Montalese                          382","43.9241823624141","11.04316060493","0663"
"0664","Montalese                          462","43.9265494147848","11.0382277996038","0664"
"0665","Montalese                          601","43.9295700518742","11.0322997061208","0665"
"0666","Montalese                          530","43.9308757808585","11.0268742492864","0666"
"0667","Martiri Della Liberta'             107","43.9322094697298","11.0228045904159","0667"
"0668","Martiri Della Liberta'             79","43.9340414257284","11.020716344674","0668"
"0669","Pza.Giov.Xxiii Capol               Sn","43.9348659460326","11.0145542240179","0669"
"0670","Martiri Della Liberta'             85","43.9339345680647","11.0207716542823","0670"
"0671","Martiri Della Liberta'             107","43.9320503527263","11.0229129389709","0671"
"0672","Montalese                          607","43.92959220187","11.032127547249","0672"
"0673","Montalese                          381","43.9241855342244","11.0429278996027","0673"
"0674","Montalese                          Sn","43.9216259290069","11.0543658744254","0674"
"0675","Montalese                          219","43.9192173051331","11.0566000718717","0675"
"0676","Pistoiese                          Sn","43.9022716962396","11.0264668608151","0676"
"0677","Pistoiese                          25","43.9038993350983","11.0225547688383","0677"
"0678","Pistoiese                          Sn","43.9038324890453","11.0160021893319","0678"
"0679","Provinciale                        207","43.9066390683097","11.012573509666","0679"
"0680","Provinciale                        171","43.9077629437646","11.011061219855","0680"
"0681","Roma                               192","43.9097467894534","11.007696080528","0681"
"0682","Roma                               167","43.9079298208954","11.0062867969066","0682"
"0683","Roma                               123","43.9074100281766","11.0058885148206","0683"
"0684","Repubblica                         14","43.9042015504102","11.0043363765496","0684"
"0685","Magni                              34","43.902757946277","11.0055419787705","0685"
"0687","Magni                              118","43.9016178316402","11.0082026406099","0687"
"0688","Lavagnini                          23","43.9032336904599","11.0111950848844","0688"
"0689","Lavagnini                          90","43.9048246113391","11.0122723933716","0689"
"0690","Pistoiese                          Sn","43.9035893615065","11.0162236019718","0690"
"0691","Pistoiese                          58","43.9036921979518","11.02275134873","0691"
"0692","Pistoiese                          Sn","43.902168294797","11.0267686753491","0692"
"0693","Montalese                          478","43.928920717478","11.0332212504791","0693"
"0694","Oste                               19","43.9027541243971","11.0288593476824","0694"
"0695","Goldoni                            Sn","43.9065116859189","11.0006151562788","0695"
"0696","Montalese                          557","43.9289752596404","11.0329693477367","0696"
"0697","Scarpettini                        414","43.9073300414999","11.0320731838591","0697"
"0698","Roma                               39","43.9048217247703","11.0038270871069","0698"
"0699","Milano                             43","43.9106164474656","11.0320986127664","0699"
"0700","Micca                              Sn","43.9180056930696","11.0556365045822","0700"
"0701","Vittorio Emanuele                  23","43.8153530856177","11.0588590072762","0701"
"0702","S.Angelo                           341","43.8140846251653","11.0628544837286","0702"
"0703","S.Angelo                           16","43.8137100495176","11.0651485111029","0703"
"0704","S.Angelo                           309/A","43.8123545514868","11.0733613456924","0704"
"0705","S.Angelo                           261","43.8108640628104","11.0820077529086","0705"
"0706","S.Angelo                           219","43.8098854175294","11.0870782689058","0706"
"0707","Vingone                            156","43.8083643972268","11.0961446180454","0707"
"0708","Vingone                            203","43.8072809916538","11.1049251460907","0708"
"0709","Vingone                            111","43.8065112599674","11.1112107370264","0709"
"0716","Dei Colli                          11","43.7847866183091","11.0971863481935","0716"
"0717","Roma                               268","43.7820754815255","11.0979609268417","0717"
"0718","Roma                               175","43.77912895301","11.0978059102848","0718"
"0719","Roma                               113","43.7771823052839","11.0961280371075","0719"
"0720","Roma                               36","43.7750775407966","11.0929904677043","0720"
"0721","Dello Stadio                       25","43.7737298201758","11.0946891944768","0721"
"0722","Galcianese                         3","43.880715312342","11.0885701512822","0722"
"0723","Livornese                          262","43.7707982495865","11.0995656446758","0723"
"0725","Livornese                          264","43.7710023903706","11.0988681840373","0725"
"0726","P.Te A Signa F/Te 10               10","43.7716672560399","11.0960949857465","0726"
"0727","Ostia                              Sn","43.8409390419128","11.0721204213119","0727"
"0729","Dello Stadio                       23","43.7753925071716","11.0944827156707","0729"
"0731","Roma                               154","43.7771943434082","11.0962668833415","0731"
"0732","Roma                               230/A","43.7792594752222","11.0979153546791","0732"
"0733","Roma                               274","43.7823734564106","11.098056352466","0733"
"0741","Vingone                            Sn","43.8066548346509","11.1106130878238","0741"
"0742","Vingone                            70","43.8073940458635","11.1046091116354","0742"
"0743","Vingone                            166","43.8083958729462","11.0964508119653","0743"
"0744","S.Angelo                           32","43.8108907709378","11.0822268800474","0744"
"0745","S.Angelo                           164","43.8123970603431","11.0735392455318","0745"
"0746","S.Angelo                           260","43.8137583723967","11.0653192738508","0746"
"0747","S.Angelo                           356","43.8142695214374","11.062272985827","0747"
"0748","Ugo Foscolo                        9","43.8890775558821","11.0598225558489","0748"
"0749","Carmignanese                       215","43.8061780261534","11.0412155964379","0749"
"0750","Baccheretana                       40","43.8341697953933","11.0254218009781","0750"
"0751","Baccheretana                       152","43.8309125212278","11.0216653944831","0751"
"0752","Baccheretana                       224","43.8290572064106","11.0187360671938","0752"
"0753","Degli Alberti                      Sn","43.7836327809461","11.0892670693544","0753"
"0754","Degli Alberti                      Sn","43.7835333712518","11.0892627359134","0754"
"0755","San Quirico                        200","43.8436551042313","11.1415534984349","0755"
"0756","San Quirico                        200","43.8435941707609","11.14168691116","0756"
"0757","Tangenziale Ovest                  Sn","43.8675754582616","11.1644250154885","0757"
"0758","Scarpettini                        94","43.922784790103","11.0381301046981","0758"
"0759","Provinciale 104                    Sn","44.0448647508452","11.1420993607494","0759"
"0760","Provinciale 104                    Sn","44.044701432497","11.1420610201312","0760"
"0761","Morandaccio                        Sn","44.0357010348944","11.1522433647065","0761"
"0762","Fontemorana                        80","43.8072821447199","10.9867402295868","0762"
"0765","Udine                              79","43.9246396180859","11.0288064602857","0765"
"0766","Livorno                            77","43.9229406348151","11.0307043447561","0766"
"0767","Livorno                            41","43.9224164126943","11.0324433338347","0767"
"0768","Novara                             Sn","43.9239299804775","11.0334592711998","0768"
"0769","Labriola                           58","43.9187419716512","11.0570426762632","0769"
"0770","Labriola                           Sn","43.9152775017167","11.0564166216261","0770"
"0771","G.Rossa                            Sn","43.9085092578444","11.0183799044774","0771"
"0772","Monticello                         2","43.8286865294839","11.0376370606489","0772"
"0773","Aiaccia                            26","43.8246581076651","11.0405322121888","0773"
"0774","Del Bargo                          16","43.8244143996761","11.0422242561036","0774"
"0775","Cantagallo                         Sn","43.9651845891075","11.1021443727724","0775"
"0781","Roma                               621","43.821865015627","11.0614262990068","0781"
"0800","Roma                               544","43.8430884337988","11.0719815061245","0800"
"0801","Roma                               595","43.8431783972417","11.0722584189783","0801"
"0802","Roma                               558","43.8409897863741","11.0698378345303","0802"
"0803","Roma                               603","43.8402575615662","11.069329499954","0803"
"0804","Roma                               Sn","43.8326785779836","11.0622375529557","0804"
"0805","Roma                               Sn","43.831986016136","11.062722135336","0805"
"0806","Roma                               Sn","43.8265826407092","11.0647674181305","0806"
"0807","Roma                               Sn","43.8261905804553","11.0647203207878","0807"
"0808","Roma                               619","43.8219969686145","11.0616579098053","0808"
"0809","Magnifico L.                       40","43.8164697728165","11.0582053057469","0809"
"0811","Soffici                            100","43.8124891485929","11.0530966972846","0811"
"0813","Lombarda                           81","43.8075269163362","11.0576581378249","0813"
"0814","Lombarda                           78","43.802819690243","11.0602367367802","0814"
"0815","Lombarda                           52","43.7991569920654","11.0629398973905","0815"
"0816","Lombarda                           Sn","43.795977729601","11.0654083115882","0816"
"0817","Alighieri                          5","43.793755511","11.0627206915718","0817"
"0818","Alighieri                          184","43.7926269494194","11.058645971953","0818"
"0820","Rossini                            58","43.7936176052357","11.0546349653167","0820"
"0821","Beethoven                          58","43.795683199723","11.0534827953972","0821"
"0822","Macia                              132","43.7960819901816","11.051301332898","0822"
"0823","Macia                              182","43.7969550340578","11.043646670742","0823"
"0824","Macia                              185","43.797594460595","11.0385317997761","0824"
"0825","Macia                              Sn","43.7973412951962","11.0337369446298","0825"
"0826","La Serra                           48","43.8031049402709","11.0318267845079","0826"
"0827","Carmignanese                       68","43.8051409609524","11.029077901677","0827"
"0828","Carmignanese                       24","43.8100004306351","11.0217544333894","0828"
"0829","Carmignanese                       Sn","43.8132507512384","11.0222853729828","0829"
"0830","Carmignano                         Sn","43.8138898945918","11.0189621782932","0830"
"0831","Vergheretana                       Sn","43.8124019660884","11.0163883159486","0831"
"0832","Vergheretana                       30","43.8089959131135","11.0139500268869","0832"
"0833","Vergheretana                       79","43.8057582496109","11.0132145112644","0833"
"0834","Vergheretana                       97","43.8047946942326","11.011527722056","0834"
"0835","P.Zza S.Cristina A Mezzana         143","43.8037072972368","11.0078040317922","0835"
"0836","Vergheretana                       97","43.8047141309607","11.0116647503129","0836"
"0837","Vergheretana                       79","43.8058564842884","11.0132907873776","0837"
"0838","Vergheretana                       30","43.809086053027","11.0140870806637","0838"
"0839","Vergheretana                       Sn","43.8122997738323","11.0164241655458","0839"
"0840","P.Za Vit.Emanuele                  33","43.8141153555316","11.0187015826664","0840"
"0841","Carmignanese                       Sn","43.8131255427779","11.0221870248045","0841"
"0842","Carmignanese                       24","43.810012567973","11.0215315494102","0842"
"0843","Carmignanese                       68","43.80503218153","11.0291092758459","0843"
"0844","La Serra                           48","43.8031788834323","11.0316937892904","0844"
"0845","Macia                              Sn","43.7972883308247","11.0339506868475","0845"
"0846","Macia                              185","43.7975243736478","11.0383725465876","0846"
"0847","Macia                              182","43.7969188667406","11.0440075264168","0847"
"0848","Macia                              132","43.7960686491254","11.0505850371681","0848"
"0850","Rossini                            33","43.7934649177569","11.054749426898","0850"
"0852","Alighieri                          184","43.7927170393308","11.0591125514458","0852"
"0853","Alighieri                          5","43.7937209201412","11.0629211066504","0853"
"0854","Lombarda                           Sn","43.7960617464079","11.0656067291862","0854"
"0855","Lombarda                           Sn","43.7999727442731","11.0623445754669","0855"
"0856","Lombarda                           78","43.803139917544","11.0602182837822","0856"
"0857","Lombarda                           77","43.8077114989076","11.0576775307854","0857"
"0858","Garibaldi                          58","43.8126351017361","11.0554095797347","0858"
"0859","Garibaldi                          Sn","43.8126902412434","11.0552723421935","0859"
"0862","Carmignanese                       125","43.8092734364834","11.0487598894537","0862"
"0863","La Cipressa                        68","43.808641035263","11.0462880608453","0863"
"0864","Carmignanese                       215","43.8059084193224","11.0411826670291","0864"
"0865","Carmignanese                       33","43.8109489955155","11.0524912679557","0865"
"0866","Soffici                            91","43.812096864834","11.0528462753513","0866"
"0867","Statale Pistoiese                  Sn","43.8166516891454","11.0552772113929","0867"
"0869","Via Levi                           Sn","43.834144323392","11.0352643691138","0869"
"0871","Maccanti                           22","43.813758136826","11.0574086420152","0871"
"0872","Buontalenti                        Sn","43.8172746806604","11.0498278588632","0872"
"0873","Statale Pistoiese                  14","43.8202734111552","11.0502827748436","0873"
"0874","Statale Pistoiese                  20","43.8259630835801","11.0425165954043","0874"
"0875","Statale Pistoiese                  118","43.8279431095676","11.0395998666572","0875"
"0876","Statale Pistoiese                  180","43.8295524704461","11.0370168292023","0876"
"0877","Statale Pistoiese                  22","43.8316011526801","11.0337758495399","0877"
"0878","Statale Pistoiese                  70","43.8337451079251","11.0303919870061","0878"
"0879","Statale Pistoiese                  168","43.8356468671135","11.0274287990248","0879"
"0882","Pistoiese                          187","43.8281052264537","11.0205107568792","0882"
"0884","Pistoiese                          104","43.8244762960389","11.0251727436153","0884"
"0885","Pistoiese                          Sn","43.8267244672925","11.0209425878006","0885"
"0886","Marconi                            Sn","43.8327394570101","11.035914227475","0886"
"0890","Pistoiese                          Sn","43.8203725656217","11.0247478426778","0890"
"0891","Pistoiese                          78","43.819328841792","11.0206921506729","0891"
"0892","Pistoiese                          17","43.8169711234503","11.0209756899102","0892"
"0895","Pistoiese                          17","43.8171570105043","11.0209420477539","0895"
"0896","Pistoiese                          78","43.8194707402571","11.0206868659796","0896"
"0897","Pistoiese                          Sn","43.8205136300719","11.0248455012632","0897"
"0898","Pistoiese                          104","43.8246183008489","11.0251513065257","0898"
"0899","Pistoiese                          165","43.8278606647035","11.0208533385997","0899"
"0900","Pistoiese                          187","43.8290179491048","11.0197651304611","0900"
"0901","Baccheretana                       127","43.8311295318396","11.0220250689748","0901"
"0902","Baccheretana                       43","43.8339479643641","11.0253549669899","0902"
"0903","Statale Pistoiese                  168","43.8356357939889","11.0272968283448","0903"
"0904","Statale Pistoiese                  95","43.8336182073997","11.0304399212803","0904"
"0905","Statale Pistoiese                  22","43.8314549269996","11.0339129157061","0905"
"0906","Statale Pistoiese                  162","43.8291512914831","11.0374602320926","0906"
"0907","Statale Pistoiese                  87","43.8276959598279","11.0397967740989","0907"
"0908","Statale Pistoiese                  11","43.8257444930405","11.042641707732","0908"
"0909","Statale Pistoiese                  Sn","43.8199879485624","11.0505214513852","0909"
"0910","Regina Margherita                  Sn","43.8186840740405","11.0522206417056","0910"
"0912","Galilei                            34","43.8164050165473","11.0477051815782","0912"
"0914","Matteotti                          Sn","43.8163505868408","11.049525418813","0914"
"0915","Granaio                            15","43.814943290561","11.0504514586234","0915"
"0916","Moro Aldo                          19","43.8140041360092","11.0523968827757","0916"
"0918","P.Zza 4 Novembre                   22","43.828506059479","11.0167555993898","0918"
"0919","Baccheretana                       366","43.8289634339246","11.0118792522356","0919"
"0920","Baccheretana                       470","43.8280848846606","11.0086654679055","0920"
"0921","Baccheretana                       520","43.8251152883942","11.0048661506477","0921"
"0922","Baccheretana                       556","43.8194392859761","11.0027627989171","0922"
"0923","Baccheretana                       588","43.8157629776438","10.9983256431355","0923"
"0924","Baccheretana                       596","43.8163069541014","10.9940032805695","0924"
"0925","Baccheretana                       601","43.8134605640191","10.987059511089","0925"
"0926","Fontemorana                        127","43.8099381958027","10.9831949351796","0926"
"0927","P.Za Verdi                         6","43.8099604157546","10.9849949494928","0927"
"0928","Fontemorana                        127","43.8100330759714","10.9832425854145","0928"
"0929","Baccheretana                       601","43.8134759907145","10.987471822191","0929"
"0930","Baccheretana                       596","43.8163262991694","10.9938182827402","0930"
"0931","Baccheretana                       572","43.8156990184507","10.9981474437569","0931"
"0932","Baccheretana                       539","43.8224290457971","11.0050332586693","0932"
"0933","Baccheretana                       524","43.8257298333116","11.0049347299115","0933"
"0934","Baccheretana                       470","43.8281530724192","11.0090784120039","0934"
"0935","Baccheretana                       362","43.8289283155597","11.0120891239808","0935"
"0936","P.Za Iv Novembre                   Sn","43.8285992720452","11.017182457178","0936"
"0937","Baccheretana                       211","43.8287865049863","11.0184335574538","0937"
"0938","Vittorio Veneto                    16","43.7899619703556","11.0573129627661","0938"
"0941","Buricchi                           Sn","43.7776871499987","11.0624134217261","0941"
"0942","Buricchi                           17","43.7751817057887","11.0601993945161","0942"
"0943","Buricchi                           27","43.7716526345466","11.0574587893832","0943"
"0944","P.Za Naldi                         Sn","43.7696062877739","11.0548084305809","0944"
"0945","S.Stefano                          26","43.7710651582562","11.0533197183834","0945"
"0946","S.Stefano                          Sn","43.7712343215072","11.0513056134069","0946"
"0947","Giovanni Xxiii                     Sn","43.7826039831723","11.0405269705439","0947"
"0948","Artimino                           Sn","43.7829635900504","11.037045421995","0948"
"0949","Giovanni Xxiii                     Sn","43.7825143163694","11.0407079650544","0949"
"0950","Montegrappa                        293","43.8675517271569","11.1139327891746","0950"
"0951","Montegrappa                        303","43.8672974617348","11.1139186969384","0951"
"0956","P.Za Stazione                      Sn","43.7767654866095","11.0642364221631","0956"
"0958","Vitt.Veneto                        16","43.7898413525064","11.0573513296417","0958"
"0959","S.Stefano                          Sn","43.7799629564065","11.0464023688351","0959"
"0961","Leopardi                           10","43.8592194948365","11.080305849657","0961"
"0963","Ferro                              113","43.8513227540617","11.0862112439497","0963"
"0964","Piazza Olmi                        1","43.8536263852706","11.0850812370061","0964"
"0965","Papi                               35","43.8574773577694","11.0825823629036","0965"
"0969","Stazione                           56","43.7882383263623","11.0532346317013","0969"
"0970","Via Leopardi                       Sn","43.7918150155501","11.067067596324","0970"
"0971","Via Leopardi                       Sn","43.7908619808102","11.0651864439562","0971"
"0972","Via Leopardi                       Sn","43.7915870558752","11.0629078332957","0972"
"0973","Via Stazione                       Sn","43.7830602012184","11.0558088406555","0973"
"0974","Dell'Alloro                        134","43.842705301149","11.0899100044708","0974"
"0975","Dell'Alloro                        152","43.8417939250393","11.0896271489914","0975"
"0976","Stazione                           56","43.7883659016916","11.0533501097543","0976"
"0979","Viottolo Di Mezzana                Sn","43.8585746724879","11.115179287844","0979"
"0980","Montefortini                       Sn","43.7924621086801","11.0648863415907","0980"
"0982","Purgatorio                         37","43.8736052420989","11.0864762150951","0982"
"0983","Carmignanese                       153","43.8084926354537","11.0464802962848","0983"
"0984","Cavour                             8","43.8122413389107","11.056537444458","0984"
"0985","Artigianato                        8","43.8109272851491","11.057122191616","0985"
"0986","Artigianato                        29","43.8097873099345","11.0591585752088","0986"
"0987","Brunelleschi                       5","43.8084807307414","11.0586785322277","0987"
"0988","Brunelleschi                       1","43.8082317289011","11.0581769057376","0988"
"0989","Artigianato                        29","43.8098644197261","11.0589915179898","0989"
"0990","Artigianato                        4","43.8111088805477","11.0570274708505","0990"
"0991","Cavour                             8","43.8125013178103","11.0565847883758","0991"
"0993","Carmignanese                       35","43.8097447272171","11.0519728416257","0993"
"0994","Carmignanese                       50","43.8097523749825","11.049921946401","0994"
"0996","Giotto                             5","43.8112172876371","11.0606192511207","0996"
"0997","Matteotti                          Sn","43.818004419658","11.0506352105823","0997"
"0998","Soffici                            50","43.8145038493886","11.0571312440016","0998"
"1000","Firenze                            110","43.8653534232559","11.1307738481795","1000"
"1001","Firenze                            178","43.8634288618578","11.1341013332417","1001"
"1002","Firenze                            407","43.8616089143293","11.1373998676082","1002"
"1003","Pratese                            56","43.8587250488572","11.1421765394574","1003"
"1004","Di Prato                           Sn","43.8578601346072","11.1461170331132","1004"
"1005","Di Prato                           Sn","43.8563235033137","11.1501540820971","1005"
"1006","Puccini                            339","43.8563381115988","11.1563429677283","1006"
"1007","Puccini                            301","43.8584882355007","11.1582678811632","1007"
"1008","Puccini                            217","43.8601041034017","11.159719336616","1008"
"1009","Puccini                            Sn","43.861826944788","11.1629814183508","1009"
"1010","Puccini                            127","43.8628863734588","11.1654430406031","1010"
"1011","Roma                               45","43.8641331778402","11.1676828228275","1011"
"1042","Paradiso                           48","43.8217148707433","11.1282622510148","1042"
"1049","Giusti                             27","43.8652975112881","11.1682892572192","1049"
"1050","Puccini                            Sn","43.8647718974103","11.1659019469645","1050"
"1051","Puccini                            127","43.8627986211339","11.1651469367584","1051"
"1052","Puccini                            165","43.8618389950568","11.162768198301","1052"
"1053","Puccini                            208","43.8592526830932","11.1588317628644","1053"
"1054","Puccini                            268","43.8573223478506","11.1571115719588","1054"
"1055","Puccini                            310","43.8556490130937","11.155320876346","1055"
"1056","Di Prato                           53","43.8565270302677","11.1499266095248","1056"
"1057","Di Prato                           9","43.8579988128658","11.1458281112397","1057"
"1058","Firenze                            493","43.858904503675","11.1417339010131","1058"
"1059","Firenze                            407","43.8617430094853","11.137349908847","1059"
"1060","Firenze                            305","43.8635937664392","11.1339250393612","1060"
"1061","Firenze                            110","43.8657673896375","11.1302385583915","1061"
"1062","Firenze                            215","43.8675500791264","11.1270198927131","1062"
"1063","Bellini                            Sn","43.8760569036897","11.1746315917319","1063"
"1065","Bellini                            18","43.8824690394556","11.1803780818526","1065"
"1066","Bellini                            Sn","43.8859532510969","11.1814296570231","1066"
"1067","Bellini                            115","43.8899075389346","11.1825884208881","1067"
"1068","Bellini                            72","43.8942418520757","11.1847354788231","1068"
"1069","Bellini                            173","43.8968359417756","11.1864646653861","1069"
"1070","Bellini                            18","43.882574765085","11.1803342642264","1070"
"1090","Bresci                             5/A","43.8630004017018","11.1429111916763","1090"
"1091","Salvi Cristiani                    Sn","43.8657286920589","11.1433676165804","1091"
"1092","Bresci                             Sn","43.8629423682521","11.1426883590526","1092"
"1100","Dei Confini                        217","43.8499162310122","11.1228787325066","1100"
"1101","Dei Confini                        179","43.8434688890447","11.1264020671103","1101"
"1102","Paolieri                           Sn","43.8262513817394","11.1428823991134","1102"
"1103","Dei Confini                        57","43.836448357438","11.1319142980176","1103"
"1104","Orly                               Sn","43.823427774627","11.1429321947704","1104"
"1105","Dell'Olmo                          89","43.8319024760486","11.1318924427415","1105"
"1106","Veneto                             Sn","43.8219663247594","11.1442185530049","1106"
"1107","Barberinese                        30","43.8300723784768","11.1311668685348","1107"
"1111","Bresci                             Sn","43.8664450374205","11.1442772305803","1111"
"1112","Buozzi                             Sn","43.8196064726069","11.142824678238","1112"
"1113","Bresci                             14","43.8617273110079","11.139746596551","1113"
"1118","Bresci                             14","43.8616756167249","11.1399924975986","1118"
"1119","Marconi                            36","43.8619071726639","11.1191832891159","1119"
"1120","Volta Prata                        1","43.8186720543198","11.1224989923083","1120"
"1121","Fiesoli                            83/C","43.8256058227379","11.1284546435899","1121"
"1122","Fiesoli                            31","43.8245694121888","11.1305713129569","1122"
"1123","Santa Maria                        Sn","43.824135363645","11.1337353105674","1123"
"1124","Saliscendi                         Sn","43.8227418648683","11.1412386895834","1124"
"1125","Via Buozzi                         Sn","43.8206388466345","11.1385658245862","1125"
"1127","Marconi                            88","43.8564010887593","11.1227934667781","1127"
"1128","Di Legri                           Sn","43.9143426449426","11.2244387019851","1128"
"1129","Marconi                            88","43.8568259547521","11.1227985918701","1129"
"1130","Bellini                            173","43.8967873845316","11.1863297883244","1130"
"1131","Bellini                            72","43.894352225813","11.1847029119106","1131"
"1132","Bellini                            Sn","43.875994908841","11.174464046548","1132"
"1141","Mammoli                            35","43.8170674388071","11.12605863213","1141"
"1149","S.Martino                          101","43.8182675918675","11.1294621575421","1149"
"1158","Lombarda                           Sn","43.8105206210793","11.0554501737347","1158"
"1172","Paolieri                           Sn","43.825863925484","11.1432443507465","1172"
"1175","S.Maria                            164","43.8267344978166","11.1357820440308","1175"
"1176","Dell'Olmo                          84","43.829859695308","11.1317953212104","1176"
"1177","Confini                            20","43.8325583827164","11.1320465196401","1177"
"1178","Confini                            98","43.8367120055018","11.1320189665844","1178"
"1179","Confini                            228","43.843805367545","11.126488041006","1179"
"1180","Confini                            268","43.8498882905992","11.1230305175715","1180"
"1181","Saliscendi                         Sn","43.8241166878164","11.1428762656974","1181"
"1185","Pantano                            16/D","43.849896258866","11.132728625481","1185"
"1186","Cervi F.Lli                        59","43.8490666836243","11.1321402067429","1186"
"1187","Cervi F.Lli                        Sn","43.8449645969117","11.1407543174585","1187"
"1188","Cervi F.Lli                        Sn","43.8449123833997","11.1410085898787","1188"
"1189","Cervi F.Lli                        59","43.8484914699948","11.1336101140584","1189"
"1190","Pantano                            Sn","43.8499898678226","11.1329036497819","1190"
"1199","Marconi                            16","43.8623016504761","11.1191666571356","1199"
"1213","Barberinese                        92","43.8239079760011","11.1258035673013","1213"
"1221","Gramsci                            209","43.9573175901818","11.0413049992254","1221"
"1222","Alfieri                            Sn","43.9320871554851","11.029304527002","1222"
"1223","Montegrappa                        Sn","43.930018876849","11.0283179013578","1223"
"1224","Casini                             25","43.9288241097291","11.0285879751706","1224"
"1225","Agricoltura                        Sn","43.9117764679596","11.0461181023515","1225"
"1229","Pistoiese                          81","43.7936038925133","11.1788475761669","1229"
"1230","I Maggio                           Sn","43.9033933216875","11.0348546651675","1230"
"1244","Bellini                            115","43.8901792596179","11.1824800782973","1244"
"1245","Bellini                            Sn","43.8861452952468","11.1814531007964","1245"
"1248","Barberinese                        90","43.8239953758492","11.1260225537882","1248"
"1274","Bellini                            16","43.8823881675899","11.1803273313088","1274"
"1278","Bellini                            61","43.871476653636","11.1692647107104","1278"
"1289","Bellini                            Sn","43.889725145215","11.1824792989531","1289"
"1290","Bellini                            Sn","43.8859033237116","11.1812907754249","1290"
"1291","Bellini                            61","43.8709232772455","11.1684932982925","1291"
"1292","Agricoltura                        Sn","43.9116707506401","11.0533491251341","1292"
"1303","Dossetti                           Sn","43.8821204819292","11.0822274345554","1303"
"1313","Barberinese                        92","43.8239264151967","11.1258287202061","1313"
"1342","Legri                              Sn","43.8877920641037","11.1917595946475","1342"
"1343","Legri                              Sn","43.8938189035388","11.2001519280677","1343"
"1344","Legri                              Sn","43.909466161478","11.2175453143436","1344"
"1345","Legri                              Sn","43.9115026749342","11.219396767809","1345"
"1346","Legri                              Sn","43.9117052331401","11.2194810151431","1346"
"1347","Legri                              Sn","43.9096828200289","11.2175943344267","1347"
"1348","Legri                              Sn","43.8936474488668","11.2001395121533","1348"
"1349","Legri                              Sn","43.8877739741991","11.1915527763025","1349"
"1350","Meucci                             Sn","43.8444465291436","11.0457036831755","1350"
"1401","Del Cittadino                      33","43.8645780798381","11.1130472867707","1401"
"1402","S.Gonda                            Sn","43.8693620277249","11.1104764405648","1402"
"1403","Montegrappa                        Sn","43.8685864752189","11.1127363265813","1403"
"1404","Catani                             59","43.8640223198853","11.1120140812425","1404"
"1406","Ferrucci                           Sn","43.8564670364212","11.121851051799","1406"
"1407","Parcheggio Nenni                   Sn","43.8733385936762","11.082384128363","1407"
"1408","Monnet                             Sn","43.8792333084204","11.0877058062116","1408"
"1409","Porta Leone                        Sn","43.8802704439234","11.0891418736191","1409"
"1410","Corso Savonarola                   13","43.8805861360727","11.0924799989156","1410"
"1411","Europa                             Sn","43.8771983346738","11.1043751480955","1411"
"1412","P.Za Stazione                      Sn","43.8785975900353","11.1090107874487","1412"
"1413","Ferrucci                           520","43.8614837951181","11.1183066979003","1413"
"1414","Porta Leone                        Sn","43.8802434232511","11.0893295074462","1414"
"1415","Falcon.Borsell.                    Sn","43.8644498694998","11.1095742064351","1415"
"1416","Ferrucci                           Sn","43.8662385217966","11.1117503875915","1416"
"1417","Ferrucci                           Sn","43.8679654145551","11.1103695208547","1417"
"1418","Ferrucci                           Sn","43.87074932183","11.1092307167607","1418"
"1419","Ferrucci                           Sn","43.8719590668571","11.1073792912166","1419"
"1420","Ferrucci                           Sn","43.8730921908979","11.1057656724053","1420"
"1421","Ferrucci                           Sn","43.875438816108","11.1031864271677","1421"
"1423","P.Za Stazione                      Sn","43.8785685358696","11.1090483480856","1423"
"1424","Ferrucci                           552","43.8598405298077","11.1187901428044","1424"
"1425","P.Za Carceri                       Sn","43.879112695081","11.0979108959683","1425"
"1426","S.Martino                          101","43.8182816017666","11.129473722378","1426"
"1429","Porta Leone                        Sn","43.8801558722097","11.0891937573553","1429"
"1432","Rinaldesca                         7","43.8798056357899","11.095735902585","1432"
"1434","Volta Prata                        1","43.8186855095473","11.1224677609357","1434"
"1437","Togliatti                          21","43.8344008865521","11.131508909497","1437"
"1439","Ippodromo                          62","43.8700471020464","11.0840148055013","1439"
"1442","Della Repubblica                   240","43.8610823186826","11.1078772113313","1442"
"1443","Delle Fonti                        285","43.857608608157","11.1031788572689","1443"
"1444","Di Cino                            Sn","43.8603112952567","11.1065090253394","1444"
"1445","Della Repubblica                   276","43.8620126208464","11.108736880827","1445"
"1446","Della Repubblica                   211","43.8637102268282","11.1101939543533","1446"
"1447","Di Gello                           21","43.8729388350199","11.0763949264571","1447"
"1450","Magenta                            Sn","43.8220073705169","11.122650157102","1450"
"1452","Di Gello                           21","43.8728278949166","11.0763711595859","1452"
"1453","Nenni                              Sn","43.8752847291626","11.0843707859203","1453"
"1454","Ferrucci                           600","43.8564506135387","11.1216882196325","1454"
"1457","Tobbianese                         Sn","43.8786086456883","11.0551407126226","1457"
"1459","Filzi                              10","43.8851337091006","11.0901117132078","1459"
"1460","Filzi                              50","43.886233083993","11.0874150729729","1460"
"1461","Filzi                              72","43.8872252097532","11.0849675530572","1461"
"1462","Filzi                              92","43.888054362309","11.0829227250031","1462"
"1463","Filzi                              158","43.8894789104543","11.0797634465063","1463"
"1464","Campaccio                          5","43.8902607357255","11.0768751124585","1464"
"1465","Alberaccio                         27","43.8885208817954","11.0754507023135","1465"
"1466","Vivaldi                            97","43.8873939399197","11.073065184445","1466"
"1467","Vivaldi                            9","43.8884489692959","11.0716947901322","1467"
"1468","Albinoni                           16","43.8890792124142","11.0726870644438","1468"
"1469","Ciabatti                           46","43.8901687118742","11.0736990356243","1469"
"1470","Pistoiese                          408","43.8914455811417","11.0738373536576","1470"
"1472","Pasubio                            21","43.8948804514038","11.0685446306082","1472"
"1473","Maliseti                           Sn","43.8967846035724","11.0698701050624","1473"
"1474","Isola Di Lero                      Sn","43.8993744163426","11.0693387831008","1474"
"1475","Maliseti                           Sn","43.8983006086989","11.0720591432903","1475"
"1476","Maliseti                           Sn","43.8981230754421","11.0711151632824","1476"
"1477","Maliseti                           Sn","43.8970803641482","11.0700142021344","1477"
"1478","Maliseti                           10","43.895454611497","11.0675840294703","1478"
"1481","Pistoiese                          421","43.8915672851844","11.0731788765014","1481"
"1482","Mascagni                           44","43.8901897370577","11.0719400288857","1482"
"1484","Alberaccio                         67","43.8870037661003","11.0732667627199","1484"
"1485","Alberaccio                         27","43.8886445326076","11.0756816971734","1485"
"1486","Filzi                              175","43.8903494498536","11.0773833984393","1486"
"1487","Filzi                              121","43.8893245550336","11.0799187938685","1487"
"1488","Filzi                              65","43.8878991128185","11.0830873662068","1488"
"1489","Filzi                              68","43.8870257028521","11.0852581182826","1489"
"1490","Filzi                              39/H","43.8862329081801","11.0872177554407","1490"
"1491","Filzi                              8","43.8849434841535","11.0903715794977","1491"
"1492","Curtatone                          Sn","43.8834475461911","11.0917451766453","1492"
"1498","Mascagni                           108","43.8882528969674","11.0701938510434","1498"
"1499","Delle Fonti                        201","43.8599881770028","11.1044468815004","1499"
"1500","Buozzi                             150","43.8185705498766","11.1440330596729","1500"
"1501","Buozzi                             252","43.8157211176811","11.1525701824206","1501"
"1502","Lucchese                           Sn","43.8105866195109","11.1651001871532","1502"
"1503","Lucchese                           Sn","43.8073450367331","11.1759123333762","1503"
"1504","Lucchese                           55","43.8049131774812","11.1815924593049","1504"
"1505","Lucchese                           85/B","43.8034012083915","11.1862463008871","1505"
"1506","Pratese                            Sn","43.7993205752812","11.1936943638249","1506"
"1507","Pratese                            Sn","43.7987516931543","11.1954540751805","1507"
"1508","Baracchini                         Sn","43.7940280587105","11.2163033468514","1508"
"1509","Di Novoli                          Sn","43.7928073614355","11.2218099572628","1509"
"1510","Maragliano                         32","43.7856126360549","11.2369904512099","1510"
"1511","P.Zza S.Iacopino                   Sn","43.7838307937717","11.2405444243957","1511"
"1513","Fiume                              3","43.7766017124502","11.2503284476002","1513"
"1515","Porte Nuove                        10","43.7794185712105","11.2404374807231","1515"
"1516","P.Za S.Iacopino                    Sn","43.7841147391672","11.2401233075633","1516"
"1517","Maragliano                         Sn","43.7856382161452","11.2371186651501","1517"
"1518","Di Novoli                          80","43.7936373553527","11.2199454936233","1518"
"1519","Gemignani                          Sn","43.7972385280376","11.2067362751091","1519"
"1520","Di Novoli                          62","43.7963709007036","11.2139653973341","1520"
"1521","Pratese                            42","43.7987900793627","11.1957288266728","1521"
"1522","Pratese                            Sn","43.7999756647604","11.1928692033599","1522"
"1523","Lucchese                           Sn","43.8035609366789","11.1859495476057","1523"
"1524","Lucchese                           Sn","43.8051742821808","11.1812622058204","1524"
"1525","Lucchese                           Sn","43.8063430699211","11.1791085168941","1525"
"1526","Lucchese                           Sn","43.8115703484313","11.1627183730263","1526"
"1527","Buozzi                             Sn","43.8163766399215","11.1498699260503","1527"
"1528","Buozzi                             157","43.8178859561105","11.1450626181768","1528"
"1529","Maragliano                         112","43.7873426657348","11.233594162878","1529"
"1530","Maragliano                         131","43.7873460405626","11.2334123420009","1530"
"1531","P.Za Vittorio                      29","43.9621241746309","11.0408315778099","1531"
"1532","Gramsci                            331","43.9607696771348","11.0426018582606","1532"
"1534","Gramsci                            307/A","43.9601556339378","11.0436397648729","1534"
"1535","Gramsci                            309","43.9616740479758","11.0444693669117","1535"
"1537","Gramsci                            263","43.9533303190328","11.0370778238942","1537"
"1538","W.Tobagi                           Sn","43.9137690309005","11.0124550644623","1538"
"1539","W.Tobagi                           Sn","43.9137339862582","11.0122620847981","1539"
"1540","Pratese                            Sn","43.8007811854691","11.1916035087317","1540"
"1541","Lucchese                           Sn","43.8119838407407","11.15884096721","1541"
"1542","Lucchese                           Sn","43.8119532754418","11.1586145764163","1542"
"1564","Guinizzelli                        Sn","43.8256564526137","11.1257887880134","1564"
"1600","Largo Alinari                      11","43.7761377000982","11.2502173479965","1600"
"1823","Terni                              Sn","43.9081655389593","11.0376285011799","1823"
"1827","Gramsci                            Sn","43.9611590174653","11.0457388900941","1827"
"1863","Guido De Ruggiero                  Sn","43.863068059768","11.0667868410558","1863"
"1866","Puccini                            45","43.9049431690766","11.0274364239142","1866"
"1870","Terni                              Sn","43.9095149136132","11.0351869590099","1870"
"1871","Tobbianese                         Sn","43.8758876730256","11.0513719474883","1871"
"1873","Ferrara                            11","43.9279337814336","11.030639458571","1873"
"1874","Carducci                           Sn","43.9271616867783","11.0322981462866","1874"
"1878","Donatello                          Sn","43.8104333066347","11.0603972135325","1878"
"1881","Barberinese                        90","43.8239681630775","11.125994726513","1881"
"1882","Montefortini                       Sn","43.7919540838242","11.081267371764","1882"
"1900","Usella Farmacia                    Sn","43.9848401596866","11.130717101897","1900"
"1902","Morandaccio                        Sn","44.0353163894841","11.1508686325661","1902"
"1903","P.Za Del Comune                    Sn","44.0534372170431","11.1557581434206","1903"
"1904","Piazzetta                          Sn","44.0519217989099","11.1520829754068","1904"
"1905","Magini                             Sn","44.045254472301","11.153718754281","1905"
"1906","P.Za Di Costozze                   Sn","44.036452699945","11.1618726459664","1906"
"1910","Puccini                            Sn","43.9066503867924","11.0238825390804","1910"
"1911","Rossini                            Sn","43.9085770196514","11.0247207016107","1911"
"1912","Bisenzio                           Sn","43.9056790725734","11.051120870031","1912"
"1913","Bisenzio                           Sn","43.905691837794","11.0508361407971","1913"
"1919","Lucchese                           Sn","43.8083267352696","11.1735071293122","1919"
"1920","Lucchese                           Sn","43.8102478010077","11.1682721130866","1920"
"1930","Lucchese                           55","43.8094567110091","11.170569134822","1930"
"1931","Buozzi                             Sn","43.817131577302","11.1465473581212","1931"
"1932","Dell'Olmo                          89","43.8317609292749","11.1318689946729","1932"
"1933","Barberinese                        30","43.8299955115405","11.1310739643713","1933"
"1934","Fiesoli                            83/C","43.8255512928198","11.1285931078554","1934"
"1935","Fiesoli                            31","43.8244942397614","11.1306433773663","1935"
"1936","Santa Maria                        Sn","43.8242266325423","11.1337993736177","1936"
"1937","Santa Maria                        164","43.826858659172","11.135830000055","1937"
"1938","Dell'Olmo                          84","43.829778150885","11.1319965070199","1938"
"1939","Confini                            28","43.8326216168379","11.1320449161776","1939"
"1941","Piazzale Del Museo                 Sn","43.8594740851492","11.1073720791099","1941"
"1942","Borselli                           Sn","43.8608042898343","11.0857067729008","1942"
"1943","Borselli                           Sn","43.8607158208236","11.0859366270032","1943"
"1944","Lazzeretto                         Sn","43.8581598792252","11.0903721889802","1944"
"1945","De Sanctis                         Sn","43.8598705525397","11.0925149679787","1945"
"1946","Dei Palli                          Sn","43.8790292409453","11.0689935700821","1946"
"1947","Dei Palli                          Sn","43.8789653034115","11.0688948912013","1947"
"1948","Dei Palli                          Sn","43.8801426523189","11.0662201223776","1948"
"1949","Dei Palli                          Sn","43.8802043179131","11.0663300489924","1949"
"1953","Olinto Nesi                        Sn","43.8839211959003","11.0595694932409","1953"
"1954","Ospedale                           Sn","43.8891488088994","11.0638160039853","1954"
"1955","Ugo Foscolo                        Sn","43.889157666559","11.0599434615452","1955"
"1956","Augusto Alfani                     Sn","43.8911296065264","11.0543731112512","1956"
"1957","Augusto Alfani                     Sn","43.8907679575068","11.0512409235089","1957"
"1958","Rimini                             Sn","43.8775542879862","11.071811016059","1958"
"1959","Traversa Pistoiese                 89","43.881315691984","11.0665045287282","1959"
"1960","Traversa Pistoiese                 93","43.8816245882163","11.0666892292759","1960"
"1961","S.Paolo                            272","43.8833191322663","11.0681956685667","1961"
"1998","Mino Da Fiesole                    9","43.8662118058403","11.1142654703587","1998"
"1999","Via Valla                          Sn","43.8608419585972","11.1161733190742","1999"
"2000","Piazza Mercatale                   72","43.8814174765532","11.1011436766786","2000"
"2001","S.Antonio                          4","43.8837271349982","11.0995953019943","2001"
"2002","P.Zza Ciardi                       18","43.8858909703674","11.0977891085768","2002"
"2003","P.Zza Ciardi                       41","43.8856636806604","11.0969922643536","2003"
"2005","Franchi                            Sn","43.886564736957","11.0950984421455","2005"
"2006","Seminario                          1","43.8827014961446","11.0953034432957","2006"
"2007","Viale V.Veneto                     60","43.8775663477253","11.1028718294138","2007"
"2008","P.Zza S.Domenico                   Sn","43.8816418717778","11.094617017857","2008"
"2009","San Vincenzo                       5","43.8820890035326","11.093505790749","2009"
"2010","P.Zza S.Niccolo                    Sn","43.880542440518","11.0923095566806","2010"
"2011","Cavour                             Sn","43.8787672772303","11.0893759861655","2011"
"2012","Della Misericordia                 Sn","43.8800772632452","11.0911427591259","2012"
"2013","Della Misericordia                 Sn","43.879977012819","11.0911844352534","2013"
"2015","Ceppo Vecchio                      2","43.8783504620376","11.0982249395652","2015"
"2016","Dossetti                           Sn","43.8820607226724","11.0821718267897","2016"
"2017","Paradiso                           48","43.8216830474462","11.1282934515966","2017"
"2021","S.Margherita                       2","43.882593637266","11.0989274791823","2021"
"2024","P.Zza Ciardi                       Sn","43.8855625094123","11.097005519238","2024"
"2025","Cavour                             81","43.8821383114983","11.0906365545813","2025"
"2027","Piazza Stazione                    1","43.775830130812","11.0959919396103","2027"
"2028","Veneto                             Sn","43.8777638944179","11.1025434604729","2028"
"2029","Piave                              21/A","43.8782683848196","11.0997763154587","2029"
"2030","P.Zza Mercatale                    3","43.8803804462683","11.100968551573","2030"
"2031","Cavallotti                         42","43.8843051135395","11.0985097068131","2031"
"2034","Meucci                             7","43.8839652545219","11.0930371227568","2034"
"2035","Tobagi                             8","43.8631003162868","11.079910992753","2035"
"2040","P.Zza Lippi                        Sn","43.88244411545","11.0984263040903","2040"
"2041","Tobbianese                         Sn","43.8738542612522","11.0498518218349","2041"
"2042","Curtatone                          46","43.8849530818701","11.0932939281499","2042"
"2043","Ginzburg                           6","43.8612861241589","11.0806033382808","2043"
"2047","Piazza Delle Carceri               Sn","43.8785966944354","11.0980441396413","2047"
"2048","Pomeria                            22","43.8768357859834","11.1012685062107","2048"
"2051","Ferro                              Sn","43.8435730470236","11.0966956082765","2051"
"2052","Ferro                              Sn","43.8433746982308","11.0969557396091","2052"
"2059","Cava                               46","43.8587654865271","11.0780433593665","2059"
"2060","Traversa Del Crocifisso            1/D","43.8443456922189","11.0722982208914","2060"
"2074","Xx Settembre                       Sn","43.7850812147499","11.0937502223909","2074"
"2075","Nebbiaia                           47","43.8437650717412","11.0422308203355","2075"
"2076","Nebbiaia                           15","43.8494732804187","11.0478322778857","2076"
"2083","Di Vittorio                        16","43.8665881900861","11.0637854227503","2083"
"2086","De Ruggero                         7/A","43.8617651533502","11.0688720272264","2086"
"2087","Piazza San Domenico                27","43.8818368079818","11.0941841960117","2087"
"2091","Tagliamento                        82","43.8973662066413","11.0874743002616","2091"
"2092","Tagliamento                        136","43.8987971536122","11.0887131630413","2092"
"2093","Tirso                              32","43.8975888599751","11.0898328377916","2093"
"2096","Palagetta                          33","43.816366546616","11.1447549194135","2096"
"2100","Firenze                            84","43.8672871696244","11.1273298707481","2100"
"2101","Del Palco                          152","43.8911107103399","11.1079208079873","2101"
"2102","Firenze                            Sn","43.8700498147838","11.1233305650151","2102"
"2103","Firenze                            Sn","43.8696714222207","11.123852518442","2103"
"2104","Firenze                            Sn","43.8712439601773","11.1210612212273","2104"
"2105","Firenze                            Sn","43.8717154275405","11.1196956131002","2105"
"2106","Borgo Valsugana                    200","43.8740007418925","11.1167202604045","2106"
"2107","Borgo Valsugana                    200","43.8738585752491","11.1167495772984","2107"
"2108","Borgo Valsugana                    157","43.8760534187246","11.1149075508009","2108"
"2109","Borgo Valsugana                    140","43.8759415979375","11.1148928902031","2109"
"2110","Borgo Valsugana                    85","43.8776525154845","11.1134625442746","2110"
"2111","Borgo Valsugana                    78","43.8775255846124","11.1134762282472","2111"
"2112","Borgo Valsugana                    65","43.8791504921787","11.1121194405894","2112"
"2113","Borgo Valsugana                    54","43.8790582289919","11.1120841907471","2113"
"2114","Sem Benelli                        33","43.88189449286","11.1098616801711","2114"
"2115","Borgo Valsugana                    2","43.881622939364","11.1099549107156","2115"
"2116","Sem Benelli                        3","43.8838672309746","11.1083448146227","2116"
"2119","Machiavelli                        23","43.8816561839139","11.1080372704788","2119"
"2120","S.Bernardino                       45/A","43.8920105663397","11.1071612466933","2120"
"2122","Miniati                            3","43.8895342922962","11.1071214620222","2122"
"2125","Firenze                            Sn","43.8770857445686","11.1071664762419","2125"
"2126","Montefortini                       Sn","43.7920260705824","11.081210335725","2126"
"2127","Firenze                            Sn","43.8771560267584","11.1072366644782","2127"
"2128","Firenze                            7/B","43.8745497515046","11.1095083211162","2128"
"2129","Firenze                            17","43.8745643370961","11.1093718028848","2129"
"2130","Firenze                            53","43.8737023382327","11.1119550546999","2130"
"2131","Firenze                            53","43.8737775991374","11.1119213712511","2131"
"2132","Firenze                            Sn","43.8730822213198","11.1154708978527","2132"
"2133","Firenze                            Sn","43.8730607779057","11.115739095168","2133"
"2135","Della Repubblica                   Sn","43.8701305397723","11.1148635334591","2135"
"2136","Della Repubblica                   Sn","43.8697636338662","11.1145629449653","2136"
"2137","Montegrappa                        3","43.8766350739186","11.1050157366732","2137"
"2138","Montegrappa                        65","43.8737097649637","11.1078142672931","2138"
"2139","Montegrappa                        135","43.8729319024675","11.1085589819482","2139"
"2140","Montegrappa                        219","43.8706106430323","11.1107772680287","2140"
"2141","Montegrappa                        273","43.8688466836144","11.1125800028748","2141"
"2142","Montegrappa                        Sn","43.8660196656277","11.1153892541466","2142"
"2143","Montegrappa                        Sn","43.8659072514632","11.1152948060952","2143"
"2144","Montegrappa                        Sn","43.8638458953812","11.1175849988574","2144"
"2145","Montegrappa                        Sn","43.8637639361972","11.1174990951152","2145"
"2159","Della Repubblica                   Sn","43.8718596432034","11.1153448694815","2159"
"2160","Rosmini                            1","43.8832596115411","11.1072752510787","2160"
"2167","Lambruschini                       76","43.8872569585514","11.1059801281057","2167"
"2168","Lambruschini                       62","43.886731110405","11.1062416905977","2168"
"2170","Machiavelli                        60","43.8805767497011","11.106300735147","2170"
"2171","Piazza Stazione                    Sn","43.8786473020064","11.1089515509906","2171"
"2172","Piazza Stazione                    Sn","43.8786714047936","11.1089090856501","2172"
"2173","Lambruschini                       33","43.8854247825594","11.1071511884389","2173"
"2174","Sem Benelli                        6","43.8837742023482","11.1083021961298","2174"
"2175","Lambruschini                       46","43.885486445201","11.1072200869786","2175"
"2178","Villani                            6/A","43.8901419023176","11.1059024266915","2178"
"2179","Piazza Stazione                    Sn","43.8787178151866","11.1088482388877","2179"
"2199","Galilei                            149","43.8965976607385","11.1069189149366","2199"
"2200","Bologna                            78","43.8884423923394","11.0966195875715","2200"
"2201","Galilei                            Sn","43.8877298079784","11.1009593174085","2201"
"2202","Galilei                            Sn","43.8879578572592","11.1011848210869","2202"
"2203","Galilei                            47","43.8913215376662","11.1031797979753","2203"
"2204","Galilei                            47","43.8917598163402","11.1033316781344","2204"
"2205","Galilei                            Sn","43.8946930320066","11.1052128826159","2205"
"2206","Galilei                            89","43.8942029185444","11.1047715511369","2206"
"2207","Galilei                            231","43.9001062116323","11.1090541149467","2207"
"2208","Marradi                            12","43.9021069183889","11.1109755106961","2208"
"2209","Galilei                            235","43.9014523772621","11.1091037735383","2209"
"2210","Zucca                              23/N","43.8904769886563","11.0918799858011","2210"
"2211","Galilei                            241","43.9038163796232","11.1091871452742","2211"
"2213","Galilei                            231/A","43.9004583279898","11.1091665367037","2213"
"2215","Galilei                            Sn","43.9044396612847","11.1093101506545","2215"
"2216","Cervi F.Lli                        31","43.9074366276442","11.1126315373859","2216"
"2217","Badiani                            7","43.9053736483337","11.1076822092813","2217"
"2218","Zucca                              3","43.889377328471","11.0942623768623","2218"
"2219","Cervi F.Lli                        49","43.9061732836531","11.1091965557643","2219"
"2220","Moggi                              9","43.8949344424563","11.0985667346788","2220"
"2221","Agnoletti                          10","43.8939359808616","11.0985464723822","2221"
"2223","Bologna                            459","43.9029777952319","11.1065971132607","2223"
"2225","Bologna                            254","43.9010815843694","11.1049422498475","2225"
"2226","Gualchiera                         88","43.8994350753046","11.1076702213924","2226"
"2227","Gualchiera                         49","43.8992947877296","11.1077393562457","2227"
"2228","Goldoni                            8/D","43.8976251420617","11.1049255165715","2228"
"2229","Goldoni                            13","43.8977651663133","11.1046262718584","2229"
"2230","Gherardi                           Sn","43.8965420248008","11.1059617260376","2230"
"2231","Gherardi                           57","43.8966720700095","11.105866953612","2231"
"2232","Gherardi                           9","43.8983031316247","11.1029829963563","2232"
"2233","Gherardi                           9","43.8982825827925","11.1031797484713","2233"
"2235","Bologna                            196/D","43.8987260152536","11.1028365183225","2235"
"2236","Ciampi                             10","43.8981500176809","11.1013227227738","2236"
"2237","Ciampi                             Sn","43.8987123189503","11.1000133338531","2237"
"2242","Ciliani                            18","43.8900593441585","11.0963772966608","2242"
"2243","Moggi                              43","43.8963511690638","11.1000681463233","2243"
"2244","Filicaia                           51/A","43.8879940993998","11.0932527008502","2244"
"2245","Filicaia                           99","43.8894750424546","11.0946438886671","2245"
"2246","Rubieri                            61","43.8930054788243","11.0971740303999","2246"
"2247","Perosi                             8","43.8929698570665","11.0921348585839","2247"
"2250","S.Mar.Per Galceti                  27","43.8981646247021","11.0984810119541","2250"
"2251","Cilianuzzo                         90","43.8979436891478","11.0968333138818","2251"
"2252","Cilianuzzo                         99","43.8983329837144","11.0970987443159","2252"
"2253","Cilianuzzo                         77","43.8965533254409","11.0952814403494","2253"
"2254","Cilianuzzo                         50","43.8963432654568","11.0951986197876","2254"
"2255","Cilianuzzo                         Sn","43.8950331837565","11.0954342961553","2255"
"2256","Cilianuzzo                         Sn","43.8949427120655","11.0954434483292","2256"
"2257","P.Zza Medaglie D'Oro               Sn","43.8937249516672","11.0963885308286","2257"
"2259","Cilianuzzo                         14","43.8938576574278","11.0969528271532","2259"
"2260","Ciliani                            72","43.891193889476","11.0934448679882","2260"
"2262","Ciliani                            124","43.892565848762","11.090420040862","2262"
"2263","Reno                               18","43.8912515646783","11.0884447186044","2263"
"2264","Taro                               24","43.8939773043423","11.0874071630639","2264"
"2265","Garigliano                         64","43.8948931200255","11.0852978097484","2265"
"2266","Garigliano                         112","43.8955955343072","11.0838489253556","2266"
"2268","Cantagallo                         Sn","43.90113427115","11.1001429526388","2268"
"2269","Cantagallo                         Sn","43.9006710048386","11.0997633211758","2269"
"2270","Badiani                            14","43.9053495232582","11.1079210712155","2270"
"2271","Cantagallo                         33","43.8982517740784","11.0997648015225","2271"
"2272","Cantagallo                         39","43.9026412830565","11.0982257826753","2272"
"2273","Cantagallo                         53","43.9029564130906","11.0977349091216","2273"
"2274","Cantagallo                         195","43.9201188285644","11.0931283388533","2274"
"2275","Cantagallo                         54/B","43.9052075600076","11.0961438483634","2275"
"2277","Cantagallo                         109","43.9082183195445","11.0952633765619","2277"
"2278","Cantagallo                         235","43.9226106199943","11.0919718567132","2278"
"2279","Galceti                            20","43.9055534318712","11.0947667674958","2279"
"2280","Dragoni                            10","43.8781405164651","11.0597868850265","2280"
"2281","7 Marzo                            11","43.9076939818558","11.0924824947181","2281"
"2282","7 Marzo                            20/C","43.9092815147751","11.0928722617062","2282"
"2283","7 Marzo                            60","43.9107321213776","11.0932807875609","2283"
"2284","Cantagallo                         94","43.9130759079862","11.0947325707078","2284"
"2285","Malaparte                          Sn","43.9118272893355","11.0931677487934","2285"
"2286","Pisani                             3","43.9071224062885","11.0894600386317","2286"
"2287","Malaparte                          3","43.90888649499","11.0913458251292","2287"
"2288","Di Galceti                         39","43.9055945748054","11.0936668935992","2288"
"2289","Di Galceti                         89","43.9076467055931","11.0856155486406","2289"
"2290","Goldoni                            114","43.8996424450777","11.1063609224451","2290"
"2292","S.Mar.Per Galceti                  126","43.9057070730938","11.0837233477451","2292"
"2293","Marie Curie                        41","43.9048594475689","11.0880007335117","2293"
"2294","Carlesi                            Sn","43.9053053380728","11.0899576933378","2294"
"2295","Goldoni                            Sn","43.8999109403323","11.1061452688016","2295"
"2296","Cantagallo                         133","43.9111354165383","11.0951105774347","2296"
"2299","Cantagallo                         262","43.9250655502385","11.0923507823247","2299"
"2303","Curtatone                          69","43.885044710944","11.0932707475026","2303"
"2309","Filzi                              226","43.8907836997011","11.0765803095147","2309"
"2310","Erbosa                             106","43.8911155746285","11.0855887373254","2310"
"2311","Speri                              14","43.8905114018747","11.0842298155663","2311"
"2312","Dei Gobbi                          97","43.8915495031701","11.0822939883464","2312"
"2313","Dei Gobbi                          131","43.8931727979879","11.0806049417516","2313"
"2314","Campaccio                          97/A","43.8938106513885","11.0799691627598","2314"
"2315","Sangro                             58/D","43.8914981535744","11.0896171432536","2315"
"2316","Guado A Narnali                    68","43.8976113806886","11.0656276742675","2316"
"2317","Montalese                          445","43.9067980597864","11.070232647841","2317"
"2318","Argonne                            144","43.9023866822892","11.0693183929174","2318"
"2323","Montalese                          443","43.9068479604882","11.0700128396136","2323"
"2324","Argonne                            54","43.8999138746676","11.0667839930537","2324"
"2326","Strozzi                            175","43.8885316880359","11.0897321190366","2326"
"2327","Montalese                          23","43.8909276813974","11.0875894345021","2327"
"2328","Montalese                          Sn","43.8928344285142","11.0850205174932","2328"
"2329","Montalese                          155","43.8939000009649","11.0836722448946","2329"
"2330","Po                                 47","43.8950040801037","11.0813563693416","2330"
"2331","Montalese                          294","43.895349452356","11.0816230180578","2331"
"2332","Montalese                          Sn","43.8964721363234","11.0788564796852","2332"
"2333","Montalese                          Sn","43.8967060503392","11.0786087559564","2333"
"2334","Montalese                          334","43.9005012972187","11.0774970515395","2334"
"2335","Montalese                          297","43.9012587942697","11.0755383360137","2335"
"2336","Montalese                          372","43.9013784133232","11.0755254343667","2336"
"2337","Montalese                          494","43.9036892147623","11.0726347530472","2337"
"2338","Montalese                          494","43.9036997729842","11.0727723440469","2338"
"2339","Montalese                          427","43.905322944662","11.0709183272227","2339"
"2340","Montalese                          544","43.9054826586812","11.0709186363844","2340"
"2342","Strozzi                            97h","43.8866132886401","11.0930197102769","2342"
"2343","Maliseti                           23","43.9004546771796","11.0743998279053","2343"
"2344","Marradi                            60","43.9037307477858","11.1133426944708","2344"
"2345","Nievo                              25","43.9044322211197","11.1144798991459","2345"
"2346","Cooperazione                       1","43.9062435412193","11.1149793948451","2346"
"2347","Bologna                            Sn","43.9060303225283","11.1129226110235","2347"
"2349","Cantagallo                         145/A","43.9175802987344","11.0947953709903","2349"
"2350","Galilei                            Sn","43.8896192421124","11.102056320102","2350"
"2351","Galilei                            Sn","43.8904169290495","11.1026097577116","2351"
"2355","Frat.Cervi                         29","43.9079819395871","11.1134600419359","2355"
"2356","Frat.Cervi                         68","43.9060391505276","11.1083617142686","2356"
"2358","Colombo                            Sn","43.8814963640039","11.0866878494927","2358"
"2360","Ortigara                           Sn","43.8961867202952","11.0644853536111","2360"
"2362","Colombo                            Sn","43.8815663450366","11.0865829939318","2362"
"2364","Pistoiese                          523","43.8951484155832","11.0656128450821","2364"
"2365","Pistoiese                          467","43.8943429931987","11.0674083493728","2365"
"2366","Del Fiordaliso                     Sn","43.8707550086688","11.0823675619313","2366"
"2367","Bologna                            Sn","43.9056560661888","11.1112079530258","2367"
"2368","Colombo                            Sn","43.8825630633391","11.0843170501521","2368"
"2369","Bologna                            Sn","43.9117850374867","11.1211248614804","2369"
"2371","Senio                              96","43.9019683110796","11.0672191890394","2371"
"2372","Senio                              174","43.9002209976032","11.0655037649715","2372"
"2376","Guado A Narnali                    17","43.8969557700938","11.0671647264401","2376"
"2377","Fondaccio                          Sn","43.8805049280381","11.0561120977272","2377"
"2381","Cantagallo                         Sn","43.9157336003942","11.0953022355321","2381"
"2382","Cantagallo                         94/S","43.9174280162481","11.09497897127","2382"
"2383","Cantagallo                         118/S","43.9202561507419","11.0931713943636","2383"
"2385","Soffici                            34","43.8499428188427","11.0785842488954","2385"
"2394","Marini                             6","43.8846818957698","11.0902507666387","2394"
"2395","Cantagallo                         237","43.9221480607123","11.0917685495957","2395"
"2396","Cantagallo                         262","43.9251208480961","11.0924382995077","2396"
"2397","Cantagallo                         Sn","43.9293785965657","11.093397248673","2397"
"2398","Cantagallo                         Sn","43.9267449343168","11.0923708078262","2398"
"2399","Cantagallo                         Sn","43.9265896551069","11.0924085885727","2399"
"2402","Galcianese                         Sn","43.8811388159481","11.0866842026966","2402"
"2403","Monnet                             Sn","43.8790432127607","11.0874416339234","2403"
"2404","Galcianese                         23/D","43.8777803574625","11.0812167668641","2404"
"2405","Galcianese                         20","43.8788362477821","11.0825175412744","2405"
"2407","Roncioni                           181","43.8768815994699","11.0813770265982","2407"
"2410","Novara                             Sn","43.9249224596807","11.0305063348849","2410"
"2411","Abbaco                             2","43.8766415408309","11.0905589139892","2411"
"2412","Lastruccia                         11/A","43.885721081474","11.0507158646531","2412"
"2413","Abbaco                             62","43.8749059085772","11.0891786530954","2413"
"2414","Roncioni                           27","43.8735820422724","11.0897942638191","2414"
"2416","Purgatorio                         Sn","43.8735542843991","11.0863085309334","2416"
"2417","D.Quarata                          Sn","43.867182126366","11.0447665160095","2417"
"2418","Roncioni                           77","43.8750884675058","11.0857512117454","2418"
"2419","Turchia                            8","43.8692743908945","11.065168582624","2419"
"2420","Del Fiordaliso                     14","43.8710358694353","11.0819650254981","2420"
"2422","Purgatorio                         66","43.8684645514416","11.0807909046751","2422"
"2423","Cava                               74","43.862846367694","11.0699558322916","2423"
"2424","Purgatorio                         107/B","43.8659573411869","11.0787254832168","2424"
"2425","Cava                               102","43.8637609651163","11.0681547406592","2425"
"2427","Cava                               104","43.8648202079881","11.0658614465362","2427"
"2428","Monnet                             Sn","43.8762181381206","11.0851241172836","2428"
"2429","Pomeria                            80","43.8760705317609","11.0987934924297","2429"
"2430","Di Gello                           62/A","43.8716798638403","11.0803501055147","2430"
"2431","Di Gello                           64","43.8715497385508","11.080420748722","2431"
"2432","S.Paolo                            405","43.8831665187463","11.0682059466651","2432"
"2434","Reggiana                           Sn","43.8743969978577","11.0721125555845","2434"
"2435","Galcianese                         22","43.8782545162539","11.0786087020444","2435"
"2436","Galcianese                         61","43.8780576129861","11.078875811845","2436"
"2437","Galcianese                         34","43.8790880696048","11.0764839564301","2437"
"2439","Portella Della Ginestra            5","43.8692303165082","11.0634573480507","2439"
"2445","Corelli                            14","43.8912573793943","11.0720182655436","2445"
"2446","Zipoli                             1","43.8871760455885","11.0821494059894","2446"
"2447","Zipoli                             27","43.8857055226616","11.0808845523026","2447"
"2448","Matteo Degli Organi                Sn","43.885031050245","11.0597489120963","2448"
"2449","Pistoiese                          456","43.8932112048403","11.0700467038801","2449"
"2451","Zipoli                             51","43.8842995405836","11.0796740422146","2451"
"2452","Becherini                          122/A","43.8891958294927","11.0750016984562","2452"
"2453","Becherini                          168","43.8893882703423","11.0722370367263","2453"
"2455","Alberaccio                         85","43.8858416207846","11.0693932677513","2455"
"2456","Mascagni                           142","43.8869571638702","11.0688651086954","2456"
"2457","S.Paolo                            149","43.8840443600242","11.0772458505868","2457"
"2461","S.Paolo                            213","43.8833594084758","11.0744848336708","2461"
"2462","Galcianese                         46","43.880096699527","11.073769122964","2462"
"2466","Reggiana                           108","43.8760267272398","11.0680223610859","2466"
"2467","Reggiana                           58","43.8749043112438","11.0708580042647","2467"
"2468","Reggiana                           Sn","43.8748798723107","11.070726097984","2468"
"2469","Di Pontalto                        2","43.8667130265987","11.0664123080173","2469"
"2470","Reggiana                           Sn","43.8745051271962","11.0716261714191","2470"
"2471","S.Giusto                           9","43.8729324200551","11.0737941329743","2471"
"2472","S.Giusto                           9/M","43.8730807875797","11.074126856937","2472"
"2473","S.Giusto                           24","43.8716422825253","11.0725957924854","2473"
"2474","S.Giusto                           19","43.8716303293961","11.0727037795019","2474"
"2475","S.Giusto                           Sn","43.8676364541225","11.0684846716376","2475"
"2476","S.Giusto                           23","43.8692511224154","11.0701150932333","2476"
"2481","Cava                               181","43.8652517250289","11.0647717987432","2481"
"2482","Cava                               181","43.8653944126408","11.0646382204713","2482"
"2483","Cava                               221","43.8665270986035","11.0619433846537","2483"
"2484","Cava                               118","43.866644451686","11.0618614394536","2484"
"2485","Pontalto                           9","43.8665568114102","11.0664275672208","2485"
"2486","Brasimone                          Sn","43.8885733055612","11.0481744126606","2486"
"2488","Trav.Pistoiese                     12/Q","43.8772913841751","11.0611756873764","2488"
"2489","Trav.Pistoiese                     55","43.8772083071308","11.06094479717","2489"
"2490","Reggiana                           Sn","43.8780380372393","11.0612504774187","2490"
"2491","Reggiana                           149","43.8778833412035","11.0614460359202","2491"
"2492","Dei Trebbi                         98","43.8818228738611","11.0378723033536","2492"
"2493","Sotto L'Organo                     38","43.8798582792348","11.0616382559714","2493"
"2494","Galcianese                         109","43.8839030971939","11.0631219564622","2494"
"2496","Maroncelli                         Sn","43.9068219938767","11.0281970879155","2496"
"2497","Pastrengo                          Sn","43.9007042857557","11.0573925113775","2497"
"2498","Pistoiese                          581","43.8957528931661","11.063466337865","2498"
"2499","Pistoiese                          615","43.8960434286313","11.0624744651427","2499"
"2501","Pistoiese                          632","43.896269910348","11.0619781538601","2501"
"2502","Pistoiese                          672","43.8970628091565","11.0593695389965","2502"
"2503","Pistoiese                          661","43.897354935211","11.0581325193738","2503"
"2504","Pistoiese                          720","43.8979292917349","11.0564811221431","2504"
"2506","Pistoiese                          806","43.8984454787024","11.0538325899848","2506"
"2507","Pistoiese                          731","43.898637563645","11.0519766104209","2507"
"2508","Pieraccioli                        Sn","43.8884667847063","11.0566035628512","2508"
"2511","Cava                               58","43.861877814903","11.072203467259","2511"
"2514","D.Ch.Capezzana                     30","43.881803390412","11.058751879659","2514"
"2517","Della Polla                        Sn","43.8585763769622","11.0425876749262","2517"
"2518","Trav.Pistoiese                     10","43.8756379549133","11.0592112497499","2518"
"2519","Trav.Pistoiese                     35","43.8756404524435","11.0590677035413","2519"
"2520","Vergaio Bivio                      6","43.8811470430246","11.0429450653222","2520"
"2522","Trav.Pistoiese                     21","43.8736564421297","11.056774878493","2522"
"2523","Trav.Pistoiese                     8","43.8739519622825","11.0571883007811","2523"
"2524","Trav.Pistoiese                     6","43.8722662539945","11.0556428971015","2524"
"2525","Trav.Pistoiese                     6","43.8709590713407","11.0544405181886","2525"
"2526","Trav.Pistoiese                     Sn","43.8706456683946","11.0542649707601","2526"
"2527","Cava                               243","43.8698392371006","11.0545600912389","2527"
"2528","Cava                               162","43.869734450574","11.0550398633094","2528"
"2529","Cava                               241","43.8691904794774","11.0561347553133","2529"
"2530","Colombaie                          35/A","43.8526347225991","11.0499621463933","2530"
"2531","Manzoni                            Sn","43.8682202068224","11.0467681915478","2531"
"2532","Longobarda                         2/A","43.861050357711","11.0447657783652","2532"
"2533","Per Iolo                           50","43.8675265114493","11.0513047102744","2533"
"2534","Per Iolo                           61","43.8676857055734","11.051549610171","2534"
"2535","Per Iolo                           8","43.8691085844928","11.0525982745829","2535"
"2536","Per Casale                         Sn","43.8729621082361","11.047959693984","2536"
"2537","Di Mezzo                           53","43.8788369057805","11.058534555892","2537"
"2542","Costa                              Sn","43.8852281365653","11.0527214497912","2542"
"2543","Lastruccia                         71","43.8867456670568","11.0483523973032","2543"
"2546","Matteo Degli Organi                200","43.8892492617","11.0506344133213","2546"
"2548","Visiana                            40","43.8903997809181","11.0484830322273","2548"
"2549","Pistoiese                          Sn","43.8989550710256","11.0499530957053","2549"
"2550","Pistoiese                          763","43.8989609752421","11.0487759001078","2550"
"2551","Pistoiese                          890","43.8997393641309","11.0445522832303","2551"
"2552","Pistoiese                          890","43.8996497572846","11.044679333626","2552"
"2553","Visiana                            185","43.8936712140558","11.0430607121328","2553"
"2554","Visiana                            191","43.893840245155","11.042681032956","2554"
"2556","Brasimone                          58","43.8917142348868","11.0444497909238","2556"
"2559","Ferro                              370","43.8408349438995","11.1044647379686","2559"
"2561","Ferro                              392","43.8393438142007","11.1063346111218","2561"
"2562","Borgo Di Casale                    20","43.8750801146909","11.0434575999238","2562"
"2563","Per Casale                         94","43.8745720479956","11.0447408646584","2563"
"2564","Salvatorelli                       20","43.8680880190544","11.045944916463","2564"
"2566","Salvatorelli                       16/A","43.8664280488629","11.0448694050145","2566"
"2567","Da Quarata                         Sn","43.8654772656453","11.0432202435748","2567"
"2568","Ferro                              45","43.8374654762463","11.1057116351333","2568"
"2570","Guazzalotri                        Sn","43.8634123605072","11.045477449463","2570"
"2571","Gherardacci                        35","43.8618980643326","11.0406200559129","2571"
"2572","Frat.Bandiera                      22","43.8627402003635","11.0410761120417","2572"
"2573","Longobarda                         2","43.8615265296001","11.0449479316307","2573"
"2574","Longobarda                         23","43.8589974842429","11.0429794529416","2574"
"2575","Colombaie                          5e/2","43.8548885141143","11.0455444080207","2575"
"2576","Colombaie                          2/G1","43.8575054746669","11.0445624647505","2576"
"2578","Borgo Di Casale                    92","43.8763925421951","11.040032222753","2578"
"2579","Borgo Di Casale                    150","43.8770372922985","11.038170161505","2579"
"2580","Per Casale                         73","43.8718399591448","11.0506176082572","2580"
"2581","Pistoiese                          763p","43.9005152944789","11.0380620204765","2581"
"2582","Pistoiese                          763","43.900150190402","11.0402216158109","2582"
"2584","Pistoiese                          769","43.9006960281663","11.0357323736185","2584"
"2585","Pistoiese                          Sn","43.9017656557993","11.0306067649675","2585"
"2586","Pistoiese                          Sn","43.9017271512198","11.0304176807915","2586"
"2587","Colombaie                          31/F","43.8539984943277","11.0468027117861","2587"
"2590","Colombaie                          35","43.851495252629","11.0524238302688","2590"
"2591","Dossetti                           Sn","43.8805500394188","11.0793349391567","2591"
"2592","San Bartolomeo                     1/1","43.8613568026069","11.0714629448656","2592"
"2593","Braga                              Sn","43.848608669953","11.0520674048648","2593"
"2594","Braga                              4","43.8485594209113","11.0519170477858","2594"
"2595","Braga                              42a","43.845498754006","11.0494413608085","2595"
"2598","Brasimone                          32","43.8900965822976","11.0456072622796","2598"
"2599","Meucci                             Sn","43.8428520766456","11.0439550209588","2599"
"2601","Cava                               31/Q","43.859860435489","11.0759711664307","2601"
"2602","Braga                              267","43.8381101672558","11.0432788639201","2602"
"2606","Meucci                             Sn","43.8445157897219","11.0455917274535","2606"
"2607","Braga                              25","43.844439917754","11.0485947561606","2607"
"2609","Braga                              11/O","43.8458868728271","11.0498589631673","2609"
"2610","S.Giusto                           8","43.8768421107784","11.0797833435672","2610"
"2611","S.Giusto                           3/A","43.8765853196993","11.0797297247505","2611"
"2612","Di Vittorio                        12","43.9562772225833","11.1294238020506","2612"
"2613","Salvatorelli                       16/A","43.8666926651449","11.0449696737078","2613"
"2614","Della Polla                        33","43.8589471132206","11.0422516835058","2614"
"2615","Traversa Per Iolo                  9","43.8613174290703","11.0418900112053","2615"
"2616","Xxvii Aprile                       23","43.8632022955456","11.0424742750416","2616"
"2618","Pistoiese                          443","43.8930969198402","11.0701031265732","2618"
"2620","Pistoiese                          347","43.8898907280617","11.0769724271625","2620"
"2621","Pistoiese                          Sn","43.8874592481415","11.0821221774489","2621"
"2622","Pistoiese                          174","43.8862105756614","11.084881108024","2622"
"2623","Pistoiese                          Sn","43.8848754063765","11.0875019614906","2623"
"2624","Pistoiese                          307","43.8887341092587","11.0793799786746","2624"
"2625","S.Paolo                            104","43.8841634147092","11.0770362529658","2625"
"2627","Dell'Organo                        Sn","43.8865297975783","11.0614135599736","2627"
"2628","S.Paolo                            351","43.8849356628485","11.0697332281342","2628"
"2629","Costa                              Sn","43.886376131722","11.0544557799495","2629"
"2630","S.Ippolito                         Sn","43.8946418020121","11.038609634793","2630"
"2633","Galcianese                         Sn","43.8811326198248","11.087782114032","2633"
"2634","Galcianese                         19","43.8791053746271","11.082951243411","2634"
"2635","Piazza Gelli                       14/A","43.8679640456263","11.0623372891998","2635"
"2636","Reggiana                           87","43.8758975784003","11.0682085734451","2636"
"2637","Borgo Di Casale                    182","43.8780256598736","11.0357480776456","2637"
"2638","Dei Trebbi                         109","43.8807347367846","11.0364023624336","2638"
"2639","Di Mezzo                           76","43.8775665545514","11.0576334623674","2639"
"2640","Tobbianese                         Sn","43.8737345266725","11.0496254290834","2640"
"2641","Nesi O.                            2","43.8814909033106","11.056976530196","2641"
"2647","Di Vergaio                         45","43.8805298115172","11.0475087506985","2647"
"2648","Tobbianese                         38","43.8762455813543","11.0516764768905","2648"
"2650","Piazzetta                          Sn","44.0519292439646","11.1521274362021","2650"
"2653","Matteo Degli Organi                110","43.8873520147963","11.0542001469815","2653"
"2655","Matteo Degli Organi                Sn","43.8864170163206","11.0560915777164","2655"
"2656","Di Vergaio                         46","43.8803756632981","11.051443588172","2656"
"2658","Di Mezzo                           33/C","43.8764597362405","11.0565251977563","2658"
"2659","Di Mezzo                           25/A","43.8761476890255","11.0542829148951","2659"
"2660","Di Vergaio                         43","43.8777367536809","11.0557412929441","2660"
"2662","Borgo Di Casale                    Sn","43.8789621432235","11.0335419743829","2662"
"2664","Carmignano                         Sn","43.8139441600757","11.0189534386282","2664"
"2665","Colombo                            67","43.8826814151234","11.0842601833275","2665"
"2666","Galcianese                         Sn","43.8847349941567","11.0606338688012","2666"
"2668","Pasquinelli                        2/B","43.8383749421734","11.0423634577559","2668"
"2669","Di Vergaio                         51","43.8784347397107","11.0539771568706","2669"
"2672","Vivaldi                            18","43.8884463538575","11.0715609957353","2672"
"2673","Vivaldi                            76","43.887409564321","11.0729335190491","2673"
"2676","Cilea                              36","43.8847764056563","11.0744675529058","2676"
"2677","Vivaldi                            111","43.8866668412533","11.0740712125984","2677"
"2681","S.Paolo                            271","43.8845564120634","11.0721631998655","2681"
"2682","Garduna                            31","43.8680573757128","11.0424398837112","2682"
"2683","Garduna                            35","43.8675677706491","11.0408630796664","2683"
"2684","Castruccio                         71/A","43.8663293842349","11.0317849576121","2684"
"2685","Castruccio                         39","43.8652490895812","11.0350610504392","2685"
"2686","Xx Settembre                       45","43.8639174042633","11.0386455300754","2686"
"2687","Dossetti                           Sn","43.8806137536834","11.0791733469007","2687"
"2688","Reggiana                           163","43.8787111526625","11.0593773748376","2688"
"2689","Pistoiese                          43","43.8834949405255","11.0904349308325","2689"
"2690","Orti Del Pero                      20","43.883310408056","11.0896013019578","2690"
"2691","Manzoni                            Sn","43.8680502455121","11.0373939826477","2691"
"2692","S.Ippolito                         Sn","43.8956436486136","11.0393639721665","2692"
"2693","Traversa Del Crocifisso            33","43.8492913773487","11.0583442805616","2693"
"2694","Traversa Del Crocifisso            13","43.8465664786243","11.0658113249826","2694"
"2695","Traversa Del Crocifisso            5","43.8451182208252","11.0703151513018","2695"
"2696","Manzoni                            Sn","43.8672359900152","11.0491415575818","2696"
"2697","Albertesca                         5","43.8643404275773","11.043093045265","2697"
"2699","Colombaie                          5e/2","43.8547582904625","11.0453150012411","2699"
"2700","Roma                               42","43.8758896358801","11.0929255816007","2700"
"2701","Roma                               100","43.8739296243737","11.0911788470564","2701"
"2703","Zarini                             34","43.8724526819001","11.0928713339528","2703"
"2704","Roma                               Sn","43.8712235116382","11.088873732272","2704"
"2705","Marx                               Sn","43.8701138477995","11.0917271248703","2705"
"2706","Roma                               Sn","43.8689657341488","11.0869227348367","2706"
"2707","Roma                               183","43.8684869336486","11.0863608078435","2707"
"2708","Roma                               Sn","43.8665469562766","11.0847143958568","2708"
"2709","Roma                               245","43.8664121088466","11.084718032089","2709"
"2710","Salviati                           20","43.8630245301799","11.084162903247","2710"
"2711","Piazza Grignano                    Sn","43.8644544325817","11.0834088502693","2711"
"2712","Piazza Grignano                    Sn","43.8637631237014","11.0837114188638","2712"
"2713","Roma                               317","43.8618304493041","11.0819486378346","2713"
"2714","Roma                               312","43.8617903244406","11.0817790037756","2714"
"2715","Roma                               319","43.8599269806317","11.0815861010626","2715"
"2716","Roma                               316","43.8598272547931","11.0814954034316","2716"
"2717","Roma                               410","43.8573345461561","11.0803301236283","2717"
"2721","Roma                               412","43.8553829621487","11.0793263423271","2721"
"2722","Roma                               472","43.8533224669255","11.0774838749332","2722"
"2723","Cava                               23","43.8578618368374","11.0793977127402","2723"
"2725","Piazza Olmi                        5","43.8534009981304","11.084984297334","2725"
"2726","Alloro                             15","43.8453055871116","11.0870240215182","2726"
"2727","Ferraris                           Sn","43.8616473555981","11.0930763736911","2727"
"2728","Ferraris                           Sn","43.8616948534009","11.0931866683383","2728"
"2729","Delle Badie                        132","43.8597204392959","11.093317400035","2729"
"2730","Delle Badie                        95","43.8586370744094","11.0987042187491","2730"
"2731","S.Piero                            Sn","43.8635994046145","11.0904350292915","2731"
"2732","Cepperelli                         17","43.8646355834379","11.0858656674118","2732"
"2733","Fiorentina                         106/C","43.8617032954339","11.0914280674207","2733"
"2734","Fiorentina                         64","43.8638977750364","11.0928642024682","2734"
"2736","Fiorentina                         36","43.8649556133888","11.0939337250999","2736"
"2737","Pomeria                            95","43.8756644554606","11.0947727177173","2737"
"2739","Ferro                              186","43.8476951912091","11.0918577070238","2739"
"2740","Arcangeli                          17","43.8746547179503","11.0952148942456","2740"
"2742","Arcangeli                          63","43.8734099751665","11.0942783894394","2742"
"2745","Zarini                             130","43.8715354820201","11.0954509331095","2745"
"2746","Del Romito                         11","43.8752490686489","11.0989548290767","2746"
"2747","Del Romito                         70","43.8733313656486","11.097223340295","2747"
"2750","Valentini                          117","43.8674645281865","11.0966271475972","2750"
"2751","Ferraris                           55","43.860489684649","11.0973475842787","2751"
"2752","Ferraris                           35","43.8606046001466","11.0972183464105","2752"
"2753","Ferraris                           Sn","43.8593885015631","11.1018528024103","2753"
"2754","Delle Badie                        95","43.8585921225754","11.0983575996207","2754"
"2755","Delle Badie                        200","43.8589828053388","11.0949961467602","2755"
"2756","Righi                              61","43.858624923854","11.1007905929508","2756"
"2757","Delle Fonti                        352","43.85324419764","11.1007814018667","2757"
"2758","Delle Fonti                        353","43.8530505950183","11.1012039675868","2758"
"2761","Delle Badie                        132","43.8598403329538","11.093235614275","2761"
"2762","Delle Fonti                        300","43.8576013628155","11.1030735861324","2762"
"2763","Delle Fonti                        376","43.8517235262215","11.1022198568329","2763"
"2764","Ferraris                           Sn","43.8593355846702","11.1021891450028","2764"
"2769","Maestri Del Lavoro                 Sn","43.8476561359014","11.0746462191337","2769"
"2770","Zarini                             370","43.8670865217083","11.1074131302109","2770"
"2771","Zarini                             310","43.868278801538","11.1041772882553","2771"
"2772","Zarini                             277","43.8685491146898","11.1036330003128","2772"
"2773","Zarini                             220","43.8703828125565","11.0986318880594","2773"
"2774","Zarini                             270","43.8691330622373","11.1018827339631","2774"
"2775","Ferrucci                           164","43.8719229988592","11.1072699912461","2775"
"2776","Ferrucci                           138","43.8731006760493","11.1056033030756","2776"
"2777","Ferrucci                           Sn","43.8750186753683","11.1033207510486","2777"
"2778","Catani                             10","43.8630750203729","11.1169342643102","2778"
"2779","Picasso                            7","43.8613999494617","11.1142306024957","2779"
"2781","Ferrucci                           131","43.8699680077276","11.1090404914264","2781"
"2782","Picasso                            Sn","43.8599294290793","11.1136999266887","2782"
"2785","Ferrucci                           236","43.8680226205218","11.1102214550128","2785"
"2786","Della Repubblica                   148","43.8665704988412","11.1123335668843","2786"
"2788","P.Della Francesca                  39","43.8631268209191","11.1073839542927","2788"
"2789","Fonda Di Mezzana                   32a","43.8478348384044","11.0996555469242","2789"
"2790","Fonda Di Mezzana                   76","43.8455764842853","11.0977651304133","2790"
"2793","Dell'Agio                          40","43.856685604115","11.1193795130398","2793"
"2794","Dei Caselli                        1","43.8571241756654","11.1182622801098","2794"
"2795","Dei Caselli                        11","43.8578317023568","11.1167302539742","2795"
"2796","Ferrucci                           329","43.8597411912576","11.1189908152911","2796"
"2798","Vannucchi                          60","43.858783056814","11.1167127840762","2798"
"2799","Vannucchi                          Sn","43.8605594346842","11.1179511763123","2799"
"2800","Ferrucci                           297","43.861581527455","11.118445047575","2800"
"2802","Picasso                            9","43.8616806730251","11.1144204608845","2802"
"2803","Catani                             39","43.8632868957395","11.1155235364221","2803"
"2806","Catani                             43","43.8637877681082","11.1131247597513","2806"
"2808","Ferrucci                           395","43.8518813034963","11.1229521979831","2808"
"2809","Ferrucci                           395","43.8523634133616","11.1232973923376","2809"
"2810","Via Lille'                         Sn","43.8437885960618","11.0960868919963","2810"
"2811","Fosso Del Masi                     Sn","43.8452514246345","11.0920179642629","2811"
"2812","Fonda Di Mezzana                   46","43.8465422964492","11.0985437981147","2812"
"2813","Delle Fonti                        379","43.8516291252425","11.1023690717124","2813"
"2814","Campostino                         47","43.8396072980882","11.1095232799351","2814"
"2815","Crocini                            92","43.8383985935756","11.1093717135589","2815"
"2817","Braga                              Sn","43.8314907901305","11.0414171748096","2817"
"2818","Braga                              Sn","43.8324183645037","11.0424225354594","2818"
"2819","Crocini                            22","43.8366730842797","11.1073179069608","2819"
"2821","Dell'Autostrada                    Sn","43.8697516220734","11.0891304479948","2821"
"2822","Valentini                          1/B","43.8750522341359","11.1023292124639","2822"
"2823","Fiorentina                         3","43.8650272852655","11.0941250141695","2823"
"2825","Valentini                          49","43.8712294878894","11.0989310562289","2825"
"2826","Boni                               43","43.8697853101467","11.1022131870739","2826"
"2827","Meoni                              Sn","43.8714527523914","11.1009401448354","2827"
"2828","Limberti                           15/A","43.8639636539879","11.0839025782038","2828"
"2829","Da Settimello                      Sn","43.8567133001399","11.0830825755547","2829"
"2831","Tettamanti                         65","43.8473507735597","11.0888041955838","2831"
"2833","Alloro                             55","43.8436167721505","11.0882923212873","2833"
"2834","Fosso Del Masi                     3","43.843927883438","11.0908494924262","2834"
"2835","Alloro                             130","43.8431294163842","11.089311539799","2835"
"2836","Del Ferro                          Sn","43.856756172492","11.0832347476716","2836"
"2838","Alloro                             105","43.8411494145142","11.0893686711544","2838"
"2839","Via Dell'Alloro                    166","43.8385972774133","11.0872815383207","2839"
"2840","Fiorentina                         37","43.8637111205303","11.0928796955302","2840"
"2841","Roma                               512","43.8493481528197","11.0755730240709","2841"
"2842","Traversa Crocifisso                Sn","43.844936846923","11.0710825239422","2842"
"2844","Traversa Crocifisso                8/C","43.8465675919318","11.0660634061624","2844"
"2845","Traversa Crocifisso                26/E","43.8494092878914","11.0582612501311","2845"
"2846","Traversa Crocifisso                36","43.8506108500723","11.0546973612313","2846"
"2847","Roma                               Sn","43.8468261852416","11.0748849113698","2847"
"2848","Roma                               469","43.8494895975858","11.0757810929378","2848"
"2849","Roma                               467","43.8515726338652","11.0764993298774","2849"
"2850","Roma                               461","43.8535214662023","11.0777647556932","2850"
"2851","Roma                               431","43.8552096033846","11.0792544967069","2851"
"2852","Panziera                           Sn","43.8686160444232","11.0906400448706","2852"
"2854","Righi                              71","43.8588821884612","11.0990890952807","2854"
"2855","Ferro                              380","43.8401689977358","11.1061871433807","2855"
"2857","Semintendi                         Sn","43.8755418071991","11.1018954974306","2857"
"2858","Fonda Di Mezzana                   Sn","43.8454651932146","11.0977999176125","2858"
"2859","Traversa Crocifisso                67/C","43.8508057503593","11.0540128165439","2859"
"2860","Roma                               497","43.844645193155","11.0738138342606","2860"
"2861","Fiorentina                         103","43.8612826872136","11.0912148844768","2861"
"2863","Del Ferro                          230","43.8456864661889","11.0960947816999","2863"
"2864","Fonda Di Mezzana                   35","43.8478742735733","11.0998024867075","2864"
"2865","Fonda Di Mezzana                   7","43.8507388175283","11.1022689837759","2865"
"2866","Delle Badie                        200","43.8586714709307","11.0960462490408","2866"
"2869","Catani                             28/B","43.8636635335864","11.1140778074663","2869"
"2870","Catani                             50","43.8641381951919","11.1118143403613","2870"
"2872","Di Ponzano                         9","43.8664433047172","11.1096917028682","2872"
"2873","Braga                              277","43.8352710861345","11.0429728648128","2873"
"2874","Catani                             21","43.8628256788533","11.1177911511245","2874"
"2877","Zarini                             360","43.8674148759265","11.1068811175616","2877"
"2879","Baldanzi                           11/A","43.8726819186624","11.098122294388","2879"
"2880","Di Ponzano                         185/A","43.866193854915","11.1115025337005","2880"
"2881","Del Ferro                          142","43.8511625081975","11.0860279931248","2881"
"2882","Baciacavallo                       34","43.8504026696809","11.0841557215229","2882"
"2883","Baciacavallo                       5","43.8520119297131","11.0793592121781","2883"
"2884","Roma                               Sn","43.8504791928263","11.0760817953536","2884"
"2885","Traversa Crocifisso                4/A","43.8452069627129","11.07028214534","2885"
"2887","Braga                              3","43.8378355870119","11.0430106428827","2887"
"2888","Braga                              277","43.835045302183","11.0428910282176","2888"
"2890","Colombaie                          2/0","43.8540220941421","11.0465357681064","2890"
"2891","Nebbiaia                           2","43.8522161614613","11.0499867455589","2891"
"2893","Badiani                            Sn","43.8431339343529","11.0416966410811","2893"
"2894","Pasquinelli                        27","43.8394860968384","11.0405879014951","2894"
"2895","Colombaie                          5","43.8573496107219","11.0450813462171","2895"
"2896","Manzoni                            Sn","43.8670389900882","11.0493927843171","2896"
"2899","Meucci                             36","43.859238744555","11.0997444169877","2899"
"2900","Peretola                           Sn","43.8006271560163","11.2015338279116","2900"
"2901","Pistoiese                          19","43.7957430856888","11.2034881245265","2901"
"2902","Baracca                            183","43.7937575966507","11.2111181236035","2902"
"2903","Baracca                            149/A","43.7926676181857","11.2145770985745","2903"
"2904","Baracca                            9","43.7890821333478","11.2239819620952","2904"
"2905","Ponte Alle Mosse                   223","43.7853169818648","11.2295792664278","2905"
"2906","Ponte Alle Mosse                   123","43.7823905503367","11.2348334584624","2906"
"2907","Ponte Alle Mosse                   2","43.7780864101124","11.2398316452356","2907"
"2909","Rosselli F.Lli                     66","43.7793670128721","11.2444216913502","2909"
"2910","Largo Alinari                      7","43.7760250484426","11.2499028520214","2910"
"2913","Scala                              72","43.7779849408484","11.2422503242428","2913"
"2914","Porte Nuove                        68","43.7819524302183","11.2374603375417","2914"
"2915","Toselli                            60","43.7835599404354","11.2348003659583","2915"
"2916","Toselli                            150","43.7860973980771","11.2300223810575","2916"
"2917","P.Za Puccini                       Sn","43.7861272945885","11.228139563486","2917"
"2918","Baracca                            44","43.7902254138929","11.222921705822","2918"
"2919","Baracca                            140","43.7933536660799","11.2126311575677","2919"
"2920","Baracca                            148","43.7947951785149","11.2082451377837","2920"
"2921","Viale Gori                         18","43.7977687053869","11.2050876606427","2921"
"2922","Peretola                           Sn","43.801024234391","11.2021631233946","2922"
"2925","Berlinguer                         Sn","43.8594074912184","11.1066186687659","2925"
"2927","Viale L. Da Vinci                  Sn","43.8670582004501","11.0945464618895","2927"
"2929","Via Allori                         Sn","43.7969811802849","11.2109750199392","2929"
"3085","Maliseti                           Sn","43.8992152614575","11.073403749699","3085"
"3402","A/11                               Sn","43.8319456468796","11.1598471578328","3402"
"3404","A11                                Sn","43.8319700549552","11.1600942978832","3404"
"3406","Pistoiese                          10/A","43.7958306752399","11.2033534979207","3406"
"3407","Pistoiese                          136","43.7951587191872","11.1980783751935","3407"
"3408","Pistoiese                          170","43.7944037240268","11.191478203776","3408"
"3409","Pistoiese                          279","43.7937137778259","11.1806336960468","3409"
"3410","Pistoiese                          352","43.7932098511226","11.1724490754403","3410"
"3411","Pistoiese                          414","43.792884221607","11.1672999049749","3411"
"3412","Pistoiese                          429","43.7939169387208","11.1588588772631","3412"
"3414","P.Za Del Popolo                    18","43.802673622003","11.1330209443472","3414"
"3415","Xiii Martiri                       148","43.8045769278011","11.1254724389238","3415"
"3416","Xiii Martiri                       143","43.8051366895955","11.1221009053757","3416"
"3417","Xiii Martiri                       266","43.8057701377406","11.1180276463755","3417"
"3418","Pistoiese                          171","43.8056565856563","11.1183442509091","3418"
"3419","Pistoiese                          145","43.8051072320297","11.1217964025165","3419"
"3420","Pistoiese                          105","43.8044602435016","11.1257820745261","3420"
"3421","P.Za Del Popolo                    Sn","43.8025926070224","11.1332274028261","3421"
"3422","Pistoiese                          13/A","43.8009841393412","11.1374129411165","3422"
"3423","Pistoiese                          417","43.7938212721935","11.1589948898455","3423"
"3424","Pistoiese                          412","43.7927560286819","11.1661597389937","3424"
"3425","Pistoiese                          323","43.7932298062052","11.1738943307101","3425"
"3426","Pistoiese                          279","43.7936804171408","11.1812068440968","3426"
"3427","Pistoiese                          154","43.7940947416986","11.1877711304945","3427"
"3428","Pistoiese                          177","43.7944483907054","11.1930634840111","3428"
"3431","Baracca                            41","43.79077334784","11.2209321686904","3431"
"3432","Baracca                            127","43.7921495582522","11.216554686318","3432"
"3471","Pistoiese                          29","43.8012546560171","11.1369385276206","3471"
"3475","Baracca                            Sn","43.7964795889706","11.2029643057656","3475"
"3508","Mammoli                            5","43.8165027767781","11.1279716000607","3508"
"4507","S. Crist.In Pilli                  Sn","43.8065987311516","11.0491383660975","4507"
"4508","Traversa Delle Caserane            Sn","43.8759897377628","11.0379889410511","4508"
"4515","Beethoven                          Sn","43.8614115502602","11.0848496900157","4515"
"4519","Don Milani                         Sn","43.8126305106148","11.0493505215978","4519"
"4562","Fra'Guittone                       Sn","43.8070122076393","11.1120293933333","4562"
"4563","Jacopone Da Lodi                   Sn","43.8073092435609","11.1155079598547","4563"
"4564","Barberinese                        Sn","43.8100274429092","11.11837197973","4564"
"4565","Barberinese                        Sn","43.8127912929148","11.1193836923244","4565"
"4566","Barberinese                        Sn","43.8145096065386","11.1202521837133","4566"
"4567","Barberinese                        Sn","43.8182053713099","11.1216962205085","4567"
"5001","Parcheggio Di Grignano             Sn","43.861370359122","11.0827594901472","5001"
"5002","Meoni                              3","43.8626555188939","11.0845061825995","5002"
"5003","Badie                              18","43.8620864578843","11.0879644672883","5003"
"5004","Badie                              102","43.8602570931529","11.0920761803933","5004"
"5005","Valentini                          78","43.8694843516611","11.0977894217721","5005"
"5006","Valentini                          23","43.8731507957471","11.100523890726","5006"
"5007","P.Za Europa Lato Nord              Sn","43.8772192691397","11.1046756037104","5007"
"5011","Bologna                            104","43.8920697758542","11.097928138192","5011"
"5012","Bologna                            116","43.8940719601172","11.0993435866196","5012"
"5013","Cilianuzzo                         109","43.8988721903571","11.0974961971305","5013"
"5014","S. Martino Per Galceti             98","43.8997559545663","11.0948471776813","5014"
"5015","Parcheggio Scambiatore Galcetello  Sn","43.9019142153639","11.0919844782601","5015"
"5016","Giugni                             Sn","43.9049761044065","11.0923369401185","5016"
"5018","Di Galceti                         42/A","43.9064258934782","11.0910991200847","5018"
"5019","Giugni                             Sn","43.9048291704863","11.0922435028692","5019"
"5020","Pacheggio Scambiatore Galcetello   Sn","43.9017538749672","11.0918413923144","5020"
"5021","San Martino Per Galceti            71/C","43.8993652800052","11.0955451965785","5021"
"5022","Bologna                            104","43.8972123823006","11.1013583392985","5022"
"5023","Bologna                            156/A","43.8967148655206","11.1009711698141","5023"
"5024","Bologna                            159","43.8935937461917","11.0989050917194","5024"
"5025","Bologna                            147/B","43.8916502895559","11.0975320692628","5025"
"5026","Bologna                            85","43.8883900561522","11.0967387563667","5026"
"5028","Udine                              44","43.8770915404954","11.0744140244081","5028"
"5029","Valentini Inps                     2","43.8752468079844","11.1024020217491","5029"
"5030","Valentini                          20","43.8734396574106","11.1006787880642","5030"
"5031","Valentini                          36","43.8713225828494","11.0988673677081","5031"
"5032","Valentini                          86","43.8691710974401","11.0975113581423","5032"
"5033","Valentini                          118","43.8673768340537","11.0963917292526","5033"
"5034","De Sanctis                         58/H","43.8599099803883","11.0923679003599","5034"
"5035","Del Lazzaretto                     47/F","43.8583424342953","11.0903396232988","5035"
"5036","Beethoven                          64","43.861732272189","11.0844884353576","5036"
"5037","Parcheggio Di Grignano             Sn","43.8612313787994","11.0826885750999","5037"
"5039","7 Marzo                            Sn","43.9128197114161","11.0937778075096","5039"
"5040","7 Marzo                            Sn","43.9106254782806","11.0931406796148","5040"
"5041","7 Marzo                            Sn","43.9087579340486","11.0926383399108","5041"
"5042","Tabernacolo                        261","43.8371052946643","11.1296190515609","5042"
"5046","Parcheggio Nenni                   Sn","43.8733166069772","11.0822172086511","5046"
"5047","Rimini                             Sn","43.8754299569838","11.0784065482236","5047"
"5048","Rimini                             13","43.8776273681743","11.0720110812554","5048"
"5049","Rimini                             65","43.8768339423623","11.0750887820191","5049"
"5050","Rimini                             Sn","43.87543899471","11.0782265138433","5050"
"5051","7 Marzo                            Sn","43.9127094322671","11.0938459247264","5051"
"5053","Del Lazzaretto                     Sn","43.8490918110617","11.0882995398029","5053"
"5054","Del Lazzaretto                     Sn","43.8492126502202","11.0882791246044","5054"
"7001","Traversa Delle Caserane            Sn","43.8771062299298","11.0326640645593","7001"
